[{"address":"海淀区中关村广场购物中心津乐汇三层（鼎好一期西侧）","baiduLatitude":39.989006,"baiduLongitude":116.32011,"cinameName":"中关村美嘉","cinemaId":1216,"couponActivityList":[{"desc":"温州银行信用卡10元购票（周三、六10点起）","id":232,"isSelected":false,"tag":"温州银行10元购票","url":"http://feature.mtime.cn/mobile/item/2016/bank/?3 "}],"districtID":1368,"feature":{"has3D":1,"hasFeature4D":0,"hasFeature4K":1,"hasFeatureDolby":1,"hasFeatureHuge":1,"hasIMAX":0,"hasLoveseat":0,"hasPark":1,"hasServiceTicket":1,"hasVIP":0,"hasWifi":1},"isETicket":true,"isTicket":true,"latitude":39.982906,"longitude":116.31255,"minPrice":7500,"movieCount":8,"ratingFinal":8.08307,"showtimeCount":77},{"address":"海淀区远大路1号金源时代购物中心5层东首","baiduLatitude":39.96539,"baiduLongitude":116.29727,"cinameName":"星美影城金源店","cinemaId":1000,"couponActivityList":[{"desc":"温州银行信用卡10元购票（周三、六10点起）","id":232,"isSelected":false,"tag":"温州银行10元购票","url":"http://feature.mtime.cn/mobile/item/2016/bank/?3 "}],"districtID":1368,"feature":{"has3D":1,"hasFeature4D":0,"hasFeature4K":0,"hasFeatureDolby":0,"hasFeatureHuge":0,"hasIMAX":1,"hasLoveseat":0,"hasPark":1,"hasServiceTicket":1,"hasVIP":1,"hasWifi":0},"isETicket":true,"isTicket":true,"latitude":39.958687,"longitude":116.29144,"minPrice":5200,"movieCount":15,"ratingFinal":7.547457,"showtimeCount":112},{"address":"朝阳区广顺北大街16号望京华彩商业中心B1","baiduLatitude":40.016514,"baiduLongitude":116.47492,"cinameName":"新影联华谊兄弟影院","cinemaId":2559,"couponActivityList":[{"desc":"温州银行信用卡10元购票（周三、六10点起）","id":232,"isSelected":false,"tag":"温州银行10元购票","url":"http://feature.mtime.cn/mobile/item/2016/bank/?3 "}],"districtID":1362,"feature":{"has3D":1,"hasFeature4D":0,"hasFeature4K":0,"hasFeatureDolby":0,"hasFeatureHuge":0,"hasIMAX":0,"hasLoveseat":0,"hasPark":1,"hasServiceTicket":1,"hasVIP":1,"hasWifi":1},"isETicket":true,"isTicket":true,"latitude":40.011066,"longitude":116.46895,"minPrice":3500,"movieCount":37,"ratingFinal":7.2867413,"showtimeCount":242},{"address":"北京市海淀区复兴路69号卓展购物中心5层东侧","baiduLatitude":39.91967,"baiduLongitude":116.28557,"cinameName":"耀莱国际五棵松店","cinemaId":2486,"couponActivityList":[{"desc":"温州银行信用卡10元购票（周三、六10点起）","id":232,"isSelected":false,"tag":"温州银行10元购票","url":"http://feature.mtime.cn/mobile/item/2016/bank/?3 "}],"districtID":1368,"feature":{"has3D":1,"hasFeature4D":0,"hasFeature4K":0,"hasFeatureDolby":0,"hasFeatureHuge":0,"hasIMAX":0,"hasLoveseat":0,"hasPark":1,"hasServiceTicket":1,"hasVIP":1,"hasWifi":1},"isETicket":true,"isTicket":true,"latitude":39.913177,"longitude":116.279686,"minPrice":4300,"movieCount":16,"ratingFinal":7.5353813,"showtimeCount":196},{"address":"北京朝阳区朝阳北路101号朝北大悦城8层","baiduLatitude":39.931164,"baiduLongitude":116.52469,"cinameName":"金逸影城朝阳大悦城店","cinemaId":2479,"couponActivityList":[{"desc":"温州银行信用卡10元购票（周三、六10点起）","id":232,"isSelected":false,"tag":"温州银行10元购票","url":"http://feature.mtime.cn/mobile/item/2016/bank/?3 "}],"districtID":1362,"feature":{"has3D":1,"hasFeature4D":0,"hasFeature4K":0,"hasFeatureDolby":0,"hasFeatureHuge":0,"hasIMAX":1,"hasLoveseat":0,"hasPark":1,"hasServiceTicket":1,"hasVIP":1,"hasWifi":0},"isETicket":true,"isTicket":true,"latitude":39.92435,"longitude":116.51859,"minPrice":5300,"movieCount":18,"ratingFinal":8.025782,"showtimeCount":115},{"address":"西城区西单北大街甲131号大悦城商场十层","baiduLatitude":39.917507,"baiduLongitude":116.37897,"cinameName":"首都电影院（西单店）","cinemaId":1815,"couponActivityList":[{"desc":"温州银行信用卡10元购票（周三、六10点起）","id":232,"isSelected":false,"tag":"温州银行10元购票","url":"http://feature.mtime.cn/mobile/item/2016/bank/?3 "}],"districtID":1375,"feature":{"has3D":1,"hasFeature4D":1,"hasFeature4K":0,"hasFeatureDolby":0,"hasFeatureHuge":0,"hasIMAX":0,"hasLoveseat":0,"hasPark":1,"hasServiceTicket":1,"hasVIP":1,"hasWifi":1},"isETicket":true,"isTicket":true,"latitude":39.910755,"longitude":116.37326,"minPrice":4500,"movieCount":27,"ratingFinal":7.393286,"showtimeCount":189},{"address":"通州区新华西街58号万达广场一号楼5层","baiduLatitude":39.912094,"baiduLongitude":116.64583,"cinameName":"北京万达通州店","cinemaId":6387,"couponActivityList":[{"desc":"温州银行信用卡10元购票（周三、六10点起）","id":232,"isSelected":false,"tag":"温州银行10元购票","url":"http://feature.mtime.cn/mobile/item/2016/bank/?3 "}],"districtID":3582,"feature":{"has3D":1,"hasFeature4D":0,"hasFeature4K":1,"hasFeatureDolby":1,"hasFeatureHuge":0,"hasIMAX":1,"hasLoveseat":0,"hasPark":1,"hasServiceTicket":1,"hasVIP":1,"hasWifi":1},"isETicket":true,"isTicket":true,"latitude":39.906593,"longitude":116.64304,"minPrice":4300,"movieCount":7,"ratingFinal":8.927541,"showtimeCount":149},{"address":"北京市丰台区靛厂路千禧商业街4号楼","baiduLatitude":39.896095,"baiduLongitude":116.29416,"cinameName":"中影国际影城北京丰台千禧街店","cinemaId":4389,"couponActivityList":[{"desc":"温州银行信用卡10元购票（周三、六10点起）","id":232,"isSelected":false,"tag":"温州银行10元购票","url":"http://feature.mtime.cn/mobile/item/2016/bank/?3 "}],"districtID":1367,"feature":{"has3D":1,"hasFeature4D":0,"hasFeature4K":1,"hasFeatureDolby":1,"hasFeatureHuge":1,"hasIMAX":0,"hasLoveseat":1,"hasPark":1,"hasServiceTicket":1,"hasVIP":0,"hasWifi":0},"isETicket":true,"isTicket":true,"latitude":39.889816,"longitude":116.287,"minPrice":3690,"movieCount":27,"ratingFinal":8.589139,"showtimeCount":175},{"address":"北京朝阳区东三环中路 双井桥北富力广场5-6层","baiduLatitude":39.902264,"baiduLongitude":116.46708,"cinameName":"UME国际影城（双井）","cinemaId":2110,"couponActivityList":[{"desc":"温州银行信用卡10元购票（周三、六10点起）","id":232,"isSelected":false,"tag":"温州银行10元购票","url":"http://feature.mtime.cn/mobile/item/2016/bank/?3 "}],"districtID":1362,"feature":{"has3D":1,"hasFeature4D":1,"hasFeature4K":0,"hasFeatureDolby":0,"hasFeatureHuge":1,"hasIMAX":0,"hasLoveseat":0,"hasPark":1,"hasServiceTicket":1,"hasVIP":0,"hasWifi":1},"isETicket":true,"isTicket":true,"latitude":39.896633,"longitude":116.460526,"minPrice":5000,"movieCount":15,"ratingFinal":7.756196,"showtimeCount":110},{"address":"北京市海淀区万柳华府北街2号（万柳中路北口）","baiduLatitude":39.97778,"baiduLongitude":116.30157,"cinameName":"海淀工人文化宫","cinemaId":1966,"couponActivityList":[{"desc":"温州银行信用卡10元购票（周三、六10点起）","id":232,"isSelected":false,"tag":"温州银行10元购票","url":"http://feature.mtime.cn/mobile/item/2016/bank/?3 "}],"districtID":1368,"feature":{"has3D":1,"hasFeature4D":0,"hasFeature4K":0,"hasFeatureDolby":0,"hasFeatureHuge":0,"hasIMAX":0,"hasLoveseat":0,"hasPark":0,"hasServiceTicket":0,"hasVIP":0,"hasWifi":0},"isETicket":true,"isTicket":true,"latitude":39.970543,"longitude":116.296974,"minPrice":3800,"movieCount":18,"ratingFinal":6.540031,"showtimeCount":92},{"address":"北京海淀区双榆树科学院南路44号（双安商场对面）","baiduLatitude":39.973564,"baiduLongitude":116.332306,"cinameName":"UME华星国际影城","cinemaId":1763,"couponActivityList":[{"desc":"温州银行信用卡10元购票（周三、六10点起）","id":232,"isSelected":false,"tag":"温州银行10元购票","url":"http://feature.mtime.cn/mobile/item/2016/bank/?3 "}],"districtID":1368,"feature":{"has3D":1,"hasFeature4D":0,"hasFeature4K":0,"hasFeatureDolby":0,"hasFeatureHuge":1,"hasIMAX":1,"hasLoveseat":1,"hasPark":1,"hasServiceTicket":1,"hasVIP":1,"hasWifi":1},"isETicket":true,"isTicket":true,"latitude":39.96768,"longitude":116.32607,"minPrice":5000,"movieCount":23,"ratingFinal":8.304818,"showtimeCount":133},{"address":"北京市朝阳区周庄嘉园甲32号楼铭泽生活广场5层大地影院","baiduLatitude":39.870296,"baiduLongitude":116.483696,"cinameName":"大地十里河铭泽店","cinemaId":6332,"couponActivityList":[{"desc":"温州银行信用卡10元购票（周三、六10点起）","id":232,"isSelected":false,"tag":"温州银行10元购票","url":"http://feature.mtime.cn/mobile/item/2016/bank/?3 "}],"districtID":1362,"feature":{"has3D":1,"hasFeature4D":0,"hasFeature4K":0,"hasFeatureDolby":0,"hasFeatureHuge":0,"hasIMAX":0,"hasLoveseat":0,"hasPark":0,"hasServiceTicket":0,"hasVIP":0,"hasWifi":0},"isETicket":true,"isTicket":true,"latitude":39.86454,"longitude":116.47628,"minPrice":3900,"movieCount":10,"ratingFinal":4.210163,"showtimeCount":83},{"address":"北京市通州区梨园镇砖厂南里华远铭悦好天地5号楼301","baiduLatitude":39.874977,"baiduLongitude":116.70632,"cinameName":"博纳通州土桥店","cinemaId":7481,"couponActivityList":[{"desc":"温州银行信用卡10元购票（周三、六10点起）","id":232,"isSelected":false,"tag":"温州银行10元购票","url":"http://feature.mtime.cn/mobile/item/2016/bank/?3 "}],"districtID":3582,"feature":{"has3D":1,"hasFeature4D":0,"hasFeature4K":0,"hasFeatureDolby":1,"hasFeatureHuge":1,"hasIMAX":0,"hasLoveseat":0,"hasPark":1,"hasServiceTicket":1,"hasVIP":0,"hasWifi":1},"isETicket":true,"isTicket":true,"latitude":39.869324,"longitude":116.69749,"minPrice":3400,"movieCount":34,"ratingFinal":6.2802176,"showtimeCount":220},{"address":"望京街9号望京国际商业中心A座4层","baiduLatitude":39.99639,"baiduLongitude":116.49086,"cinameName":"望京星美影城","cinemaId":1474,"couponActivityList":[{"desc":"温州银行信用卡10元购票（周三、六10点起）","id":232,"isSelected":false,"tag":"温州银行10元购票","url":"http://feature.mtime.cn/mobile/item/2016/bank/?3 "}],"districtID":1362,"feature":{"has3D":1,"hasFeature4D":0,"hasFeature4K":0,"hasFeatureDolby":0,"hasFeatureHuge":0,"hasIMAX":0,"hasLoveseat":0,"hasPark":1,"hasServiceTicket":1,"hasVIP":1,"hasWifi":0},"isETicket":true,"isTicket":true,"latitude":39.990437,"longitude":116.483574,"minPrice":3900,"movieCount":13,"ratingFinal":6.927029,"showtimeCount":87},{"address":"北京市朝阳区朝外大街10号（蓝岛大厦西区五——六层）","baiduLatitude":39.928444,"baiduLongitude":116.45481,"cinameName":"北京紫光影城","cinemaId":1012,"couponActivityList":[{"desc":"温州银行信用卡10元购票（周三、六10点起）","id":232,"isSelected":false,"tag":"温州银行10元购票","url":"http://feature.mtime.cn/mobile/item/2016/bank/?3 "}],"districtID":1362,"feature":{"has3D":1,"hasFeature4D":0,"hasFeature4K":0,"hasFeatureDolby":0,"hasFeatureHuge":0,"hasIMAX":0,"hasLoveseat":1,"hasPark":1,"hasServiceTicket":1,"hasVIP":1,"hasWifi":0},"isETicket":true,"isTicket":true,"latitude":39.922375,"longitude":116.44808,"minPrice":3500,"movieCount":41,"ratingFinal":6.916199,"showtimeCount":138},{"address":"朝阳区劲松中街404楼","baiduLatitude":39.88889,"baiduLongitude":116.462654,"cinameName":"劲松电影院","cinemaId":1044,"couponActivityList":[{"desc":"温州银行信用卡10元购票（周三、六10点起）","id":232,"isSelected":false,"tag":"温州银行10元购票","url":"http://feature.mtime.cn/mobile/item/2016/bank/?3 "}],"districtID":1362,"feature":{"has3D":1,"hasFeature4D":0,"hasFeature4K":0,"hasFeatureDolby":0,"hasFeatureHuge":0,"hasIMAX":0,"hasLoveseat":0,"hasPark":0,"hasServiceTicket":1,"hasVIP":0,"hasWifi":0},"isETicket":true,"isTicket":true,"latitude":39.882046,"longitude":116.45605,"minPrice":3800,"movieCount":22,"ratingFinal":5.287869,"showtimeCount":105},{"address":"东城区隆福寺街47号","baiduLatitude":39.93162,"baiduLongitude":116.42202,"cinameName":"东城区东四工人文化宫","cinemaId":1033,"couponActivityList":[{"desc":"温州银行信用卡10元购票（周三、六10点起）","id":232,"isSelected":false,"tag":"温州银行10元购票","url":"http://feature.mtime.cn/mobile/item/2016/bank/?3 "}],"districtID":1365,"feature":{"has3D":1,"hasFeature4D":0,"hasFeature4K":0,"hasFeatureDolby":0,"hasFeatureHuge":0,"hasIMAX":0,"hasLoveseat":0,"hasPark":0,"hasServiceTicket":0,"hasVIP":0,"hasWifi":0},"isETicket":true,"isTicket":true,"latitude":39.92539,"longitude":116.41562,"minPrice":3100,"movieCount":4,"ratingFinal":6.7054095,"showtimeCount":17},{"address":"北京昌平汤立路201号东亚新华小区(南区)北门，紧邻万和医院、莫泰酒店、华泰汽车大厦斜对面。","baiduLatitude":40.06067,"baiduLongitude":116.41834,"cinameName":"星环影城立水桥店","cinemaId":3846,"couponActivityList":[{"desc":"温州银行信用卡10元购票（周三、六10点起）","id":232,"isSelected":false,"tag":"温州银行10元购票","url":"http://feature.mtime.cn/mobile/item/2016/bank/?3 "}],"districtID":1362,"feature":{"has3D":1,"hasFeature4D":0,"hasFeature4K":0,"hasFeatureDolby":0,"hasFeatureHuge":0,"hasIMAX":0,"hasLoveseat":0,"hasPark":0,"hasServiceTicket":0,"hasVIP":0,"hasWifi":1},"isETicket":true,"isTicket":true,"latitude":40.053234,"longitude":116.41286,"minPrice":4500,"movieCount":2,"ratingFinal":8.378754,"showtimeCount":18},{"address":"北京市大兴区黄村镇百联清城购物中心三层北区","baiduLatitude":39.74351,"baiduLongitude":116.33801,"cinameName":"北京市大兴区最·影城","cinemaId":8328,"couponActivityList":[{"desc":"温州银行信用卡10元购票（周三、六10点起）","id":232,"isSelected":false,"tag":"温州银行10元购票","url":"http://feature.mtime.cn/mobile/item/2016/bank/?3 "}],"districtID":1364,"feature":{"has3D":1,"hasFeature4D":0,"hasFeature4K":0,"hasFeatureDolby":0,"hasFeatureHuge":0,"hasIMAX":0,"hasLoveseat":0,"hasPark":1,"hasServiceTicket":1,"hasVIP":0,"hasWifi":1},"isETicket":true,"isTicket":true,"latitude":0,"longitude":0,"minPrice":2800,"movieCount":12,"ratingFinal":8.840653,"showtimeCount":81},{"address":"北京市丰台区果园8号楼6层","baiduLatitude":39.862545,"baiduLongitude":116.40429,"cinameName":"大地欣雅汇影城","cinemaId":7542,"couponActivityList":[{"desc":"温州银行信用卡10元购票（周三、六10点起）","id":232,"isSelected":false,"tag":"温州银行10元购票","url":"http://feature.mtime.cn/mobile/item/2016/bank/?3 "}],"districtID":1367,"feature":{"has3D":1,"hasFeature4D":0,"hasFeature4K":0,"hasFeatureDolby":0,"hasFeatureHuge":0,"hasIMAX":0,"hasLoveseat":1,"hasPark":1,"hasServiceTicket":1,"hasVIP":1,"hasWifi":1},"isETicket":true,"isTicket":true,"latitude":39.824627,"longitude":116.25474,"minPrice":3400,"movieCount":12,"ratingFinal":7.6703267,"showtimeCount":80},{"address":"北京市东城区北三环东路36号环球贸易中心E座B1/F1/F3","baiduLatitude":39.972256,"baiduLongitude":116.41731,"cinameName":"UME国际影城(安贞店)","cinemaId":2365,"couponActivityList":[{"desc":"温州银行信用卡10元购票（周三、六10点起）","id":232,"isSelected":false,"tag":"温州银行10元购票","url":"http://feature.mtime.cn/mobile/item/2016/bank/?3 "}],"districtID":1365,"feature":{"has3D":1,"hasFeature4D":1,"hasFeature4K":0,"hasFeatureDolby":0,"hasFeatureHuge":0,"hasIMAX":0,"hasLoveseat":1,"hasPark":1,"hasServiceTicket":1,"hasVIP":1,"hasWifi":0},"isETicket":true,"isTicket":true,"latitude":39.968224,"longitude":116.410255,"minPrice":5000,"movieCount":36,"ratingFinal":7.960308,"showtimeCount":190},{"address":"北京市海淀区北三环中路67号","baiduLatitude":39.97414,"baiduLongitude":116.373055,"cinameName":"北京天幕新彩云影城","cinemaId":6857,"couponActivityList":[{"desc":"温州银行信用卡10元购票（周三、六10点起）","id":232,"isSelected":false,"tag":"温州银行10元购票","url":"http://feature.mtime.cn/mobile/item/2016/bank/?3 "}],"districtID":1368,"feature":{"has3D":1,"hasFeature4D":1,"hasFeature4K":1,"hasFeatureDolby":0,"hasFeatureHuge":1,"hasIMAX":0,"hasLoveseat":0,"hasPark":1,"hasServiceTicket":1,"hasVIP":1,"hasWifi":0},"isETicket":true,"isTicket":true,"latitude":39.968246,"longitude":116.36708,"minPrice":2300,"movieCount":18,"ratingFinal":8.093406,"showtimeCount":139},{"address":"北京丰台区南三环东路成寿寺路2号新业广场2层","baiduLatitude":39.86311,"baiduLongitude":116.453674,"cinameName":"星美国际分钟寺店","cinemaId":3075,"couponActivityList":[{"desc":"温州银行信用卡10元购票（周三、六10点起）","id":232,"isSelected":false,"tag":"温州银行10元购票","url":"http://feature.mtime.cn/mobile/item/2016/bank/?3 "}],"districtID":1367,"feature":{"has3D":1,"hasFeature4D":1,"hasFeature4K":0,"hasFeatureDolby":0,"hasFeatureHuge":0,"hasIMAX":0,"hasLoveseat":0,"hasPark":1,"hasServiceTicket":1,"hasVIP":1,"hasWifi":1},"isETicket":true,"isTicket":true,"latitude":39.85865,"longitude":116.44509,"minPrice":3900,"movieCount":8,"ratingFinal":5.5700545,"showtimeCount":94},{"address":"北京市昌平区北清路1号","baiduLatitude":40.102764,"baiduLongitude":116.295494,"cinameName":"中影国际影城北京昌平永旺店","cinemaId":2342,"couponActivityList":[{"desc":"温州银行信用卡10元购票（周三、六10点起）","id":232,"isSelected":false,"tag":"温州银行10元购票","url":"http://feature.mtime.cn/mobile/item/2016/bank/?3 "}],"districtID":1361,"feature":{"has3D":1,"hasFeature4D":0,"hasFeature4K":0,"hasFeatureDolby":0,"hasFeatureHuge":0,"hasIMAX":0,"hasLoveseat":0,"hasPark":1,"hasServiceTicket":1,"hasVIP":0,"hasWifi":1},"isETicket":true,"isTicket":true,"latitude":40.096687,"longitude":116.2944,"minPrice":4190,"movieCount":8,"ratingFinal":7.699902,"showtimeCount":87},{"address":"北京市丰台区政馨园三区B1","baiduLatitude":39.851406,"baiduLongitude":116.43841,"cinameName":"星博正华影城","cinemaId":2621,"couponActivityList":[{"desc":"温州银行信用卡10元购票（周三、六10点起）","id":232,"isSelected":false,"tag":"温州银行10元购票","url":"http://feature.mtime.cn/mobile/item/2016/bank/?3 "}],"districtID":1367,"feature":{"has3D":1,"hasFeature4D":0,"hasFeature4K":1,"hasFeatureDolby":0,"hasFeatureHuge":0,"hasIMAX":0,"hasLoveseat":1,"hasPark":1,"hasServiceTicket":1,"hasVIP":1,"hasWifi":1},"isETicket":true,"isTicket":true,"latitude":39.845016,"longitude":116.432495,"minPrice":3500,"movieCount":27,"ratingFinal":5.9746404,"showtimeCount":287},{"address":"朝阳区东三环北路36号","baiduLatitude":39.927994,"baiduLongitude":116.468735,"cinameName":"朝阳剧场","cinemaId":1024,"couponActivityList":[{"desc":"温州银行信用卡10元购票（周三、六10点起）","id":232,"isSelected":false,"tag":"温州银行10元购票","url":"http://feature.mtime.cn/mobile/item/2016/bank/?3 "}],"districtID":1362,"feature":{"has3D":1,"hasFeature4D":0,"hasFeature4K":0,"hasFeatureDolby":0,"hasFeatureHuge":0,"hasIMAX":0,"hasLoveseat":0,"hasPark":1,"hasServiceTicket":0,"hasVIP":0,"hasWifi":0},"isETicket":true,"isTicket":true,"latitude":39.922363,"longitude":116.46215,"minPrice":4500,"movieCount":16,"ratingFinal":6.284493,"showtimeCount":106},{"address":"北京朝阳区祁家豁子8号健翔大厦地下一层","baiduLatitude":39.986496,"baiduLongitude":116.38771,"cinameName":"海航活力天宝国际影城","cinemaId":2860,"couponActivityList":[{"desc":"温州银行信用卡10元购票（周三、六10点起）","id":232,"isSelected":false,"tag":"温州银行10元购票","url":"http://feature.mtime.cn/mobile/item/2016/bank/?3 "}],"districtID":1362,"feature":{"has3D":1,"hasFeature4D":0,"hasFeature4K":0,"hasFeatureDolby":0,"hasFeatureHuge":0,"hasIMAX":0,"hasLoveseat":0,"hasPark":1,"hasServiceTicket":1,"hasVIP":0,"hasWifi":1},"isETicket":true,"isTicket":true,"latitude":39.98036,"longitude":116.38103,"minPrice":2900,"movieCount":16,"ratingFinal":7.342068,"showtimeCount":152},{"address":"北京朝阳区朝阳公园6号蓝色港湾国际商区SA-42传奇时代影城","baiduLatitude":39.95481,"baiduLongitude":116.482704,"cinameName":"传奇时代影城","cinemaId":2149,"couponActivityList":[{"desc":"温州银行信用卡10元购票（周三、六10点起）","id":232,"isSelected":false,"tag":"温州银行10元购票","url":"http://feature.mtime.cn/mobile/item/2016/bank/?3 "}],"districtID":1362,"feature":{"has3D":1,"hasFeature4D":0,"hasFeature4K":0,"hasFeatureDolby":0,"hasFeatureHuge":1,"hasIMAX":0,"hasLoveseat":0,"hasPark":1,"hasServiceTicket":1,"hasVIP":1,"hasWifi":1},"isETicket":true,"isTicket":true,"latitude":39.948826,"longitude":116.47366,"minPrice":3800,"movieCount":19,"ratingFinal":7.480856,"showtimeCount":113},{"address":"北京市海淀区巴沟路2号华联万柳购物中心5层","baiduLatitude":39.979168,"baiduLongitude":116.301704,"cinameName":"橙天嘉禾影城北京万柳店","cinemaId":2491,"couponActivityList":[{"desc":"温州银行信用卡10元购票（周三、六10点起）","id":232,"isSelected":false,"tag":"温州银行10元购票","url":"http://feature.mtime.cn/mobile/item/2016/bank/?3 "}],"districtID":1368,"feature":{"has3D":1,"hasFeature4D":0,"hasFeature4K":1,"hasFeatureDolby":0,"hasFeatureHuge":0,"hasIMAX":0,"hasLoveseat":0,"hasPark":1,"hasServiceTicket":1,"hasVIP":0,"hasWifi":1},"isETicket":true,"isTicket":true,"latitude":39.97413,"longitude":116.29452,"minPrice":3400,"movieCount":14,"ratingFinal":7.7238297,"showtimeCount":110},{"address":"北京市朝阳区北辰东路5号(鸟巢正北一公里）中国科学技术馆（新馆）内","baiduLatitude":40.011833,"baiduLongitude":116.40452,"cinameName":"保利中国科技馆店","cinemaId":2769,"couponActivityList":[{"desc":"温州银行信用卡10元购票（周三、六10点起）","id":232,"isSelected":false,"tag":"温州银行10元购票","url":"http://feature.mtime.cn/mobile/item/2016/bank/?3 "}],"districtID":1362,"feature":{"has3D":1,"hasFeature4D":1,"hasFeature4K":0,"hasFeatureDolby":0,"hasFeatureHuge":1,"hasIMAX":0,"hasLoveseat":0,"hasPark":1,"hasServiceTicket":1,"hasVIP":0,"hasWifi":0},"isETicket":true,"isTicket":true,"latitude":40.006123,"longitude":116.39854,"minPrice":4500,"movieCount":9,"ratingFinal":5.7790227,"showtimeCount":20},{"address":"北京市海淀区学清路甲8号，圣熙8号购物中心五层西侧。","baiduLatitude":40.01422,"baiduLongitude":116.36058,"cinameName":"北京嘉华国际影城","cinemaId":2566,"couponActivityList":[{"desc":"温州银行信用卡10元购票（周三、六10点起）","id":232,"isSelected":false,"tag":"温州银行10元购票","url":"http://feature.mtime.cn/mobile/item/2016/bank/?3 "}],"districtID":1368,"feature":{"has3D":1,"hasFeature4D":0,"hasFeature4K":0,"hasFeatureDolby":0,"hasFeatureHuge":0,"hasIMAX":0,"hasLoveseat":0,"hasPark":1,"hasServiceTicket":1,"hasVIP":0,"hasWifi":1},"isETicket":true,"isTicket":true,"latitude":40.008995,"longitude":116.35408,"minPrice":4800,"movieCount":9,"ratingFinal":8.752211,"showtimeCount":62},{"address":"北京市西城区白广路8号","baiduLatitude":39.88988,"baiduLongitude":116.36587,"cinameName":"广安门电影院","cinemaId":1026,"couponActivityList":[{"desc":"温州银行信用卡10元购票（周三、六10点起）","id":232,"isSelected":false,"tag":"温州银行10元购票","url":"http://feature.mtime.cn/mobile/item/2016/bank/?3 "}],"districtID":1376,"feature":{"has3D":1,"hasFeature4D":0,"hasFeature4K":0,"hasFeatureDolby":1,"hasFeatureHuge":0,"hasIMAX":0,"hasLoveseat":0,"hasPark":1,"hasServiceTicket":1,"hasVIP":1,"hasWifi":1},"isETicket":true,"isTicket":true,"latitude":39.883907,"longitude":116.35929,"minPrice":3500,"movieCount":13,"ratingFinal":7.2136035,"showtimeCount":84},{"address":"北京市朝阳区慈云寺北里209号未来汇2层","baiduLatitude":39.92211,"baiduLongitude":116.498795,"cinameName":"北京耀莱成龙国际影城（慈云寺店）","cinemaId":5841,"couponActivityList":[{"desc":"温州银行信用卡10元购票（周三、六10点起）","id":232,"isSelected":false,"tag":"温州银行10元购票","url":"http://feature.mtime.cn/mobile/item/2016/bank/?3 "}],"districtID":1362,"feature":{"has3D":1,"hasFeature4D":0,"hasFeature4K":0,"hasFeatureDolby":0,"hasFeatureHuge":0,"hasIMAX":0,"hasLoveseat":0,"hasPark":1,"hasServiceTicket":1,"hasVIP":0,"hasWifi":0},"isETicket":true,"isTicket":true,"latitude":39.916023,"longitude":116.49147,"minPrice":8300,"movieCount":4,"ratingFinal":8.995243,"showtimeCount":6},{"address":"北京丰台区丰葆路永旺梦乐城4层","baiduLatitude":39.82428,"baiduLongitude":116.29695,"cinameName":"中影国际影城北京丰台永旺店","cinemaId":7475,"couponActivityList":[{"desc":"温州银行信用卡10元购票（周三、六10点起）","id":232,"isSelected":false,"tag":"温州银行10元购票","url":"http://feature.mtime.cn/mobile/item/2016/bank/?3 "}],"districtID":1367,"feature":{"has3D":1,"hasFeature4D":0,"hasFeature4K":0,"hasFeatureDolby":1,"hasFeatureHuge":0,"hasIMAX":0,"hasLoveseat":0,"hasPark":1,"hasServiceTicket":1,"hasVIP":0,"hasWifi":1},"isETicket":true,"isTicket":true,"latitude":39.813656,"longitude":116.2886,"minPrice":3590,"movieCount":12,"ratingFinal":6.585163,"showtimeCount":99},{"address":"北京市平谷区迎宾街1号院22号楼五层F5-13","baiduLatitude":40.151974,"baiduLongitude":117.10142,"cinameName":"华联国际影城平谷店","cinemaId":8325,"couponActivityList":[{"desc":"温州银行信用卡10元购票（周三、六10点起）","id":232,"isSelected":false,"tag":"温州银行10元购票","url":"http://feature.mtime.cn/mobile/item/2016/bank/?3 "}],"districtID":1371,"feature":{"has3D":1,"hasFeature4D":0,"hasFeature4K":0,"hasFeatureDolby":0,"hasFeatureHuge":0,"hasIMAX":0,"hasLoveseat":0,"hasPark":1,"hasServiceTicket":1,"hasVIP":0,"hasWifi":1},"isETicket":true,"isTicket":true,"latitude":0,"longitude":0,"minPrice":3800,"movieCount":17,"ratingFinal":9.227102,"showtimeCount":117},{"address":"朝阳区建国路93号万达广场三层","baiduLatitude":39.915833,"baiduLongitude":116.478516,"cinameName":"北京万达国际影城CBD店","cinemaId":1007,"couponActivityList":[{"desc":"温州银行信用卡10元购票（周三、六10点起）","id":232,"isSelected":false,"tag":"温州银行10元购票","url":"http://feature.mtime.cn/mobile/item/2016/bank/?3 "}],"districtID":1362,"feature":{"has3D":1,"hasFeature4D":0,"hasFeature4K":0,"hasFeatureDolby":1,"hasFeatureHuge":0,"hasIMAX":1,"hasLoveseat":0,"hasPark":1,"hasServiceTicket":1,"hasVIP":1,"hasWifi":0},"isETicket":true,"isTicket":true,"latitude":39.908813,"longitude":116.470314,"minPrice":4300,"movieCount":10,"ratingFinal":7.40397,"showtimeCount":110},{"address":"北京市朝阳区朝阳北路长楹天街购物中心东区5F-09卢米埃影城","baiduLatitude":39.931442,"baiduLongitude":116.61028,"cinameName":"卢米埃长楹天街影城","cinemaId":7152,"couponActivityList":[{"desc":"温州银行信用卡10元购票（周三、六10点起）","id":232,"isSelected":false,"tag":"温州银行10元购票","url":"http://feature.mtime.cn/mobile/item/2016/bank/?3 "}],"districtID":1362,"feature":{"has3D":1,"hasFeature4D":0,"hasFeature4K":0,"hasFeatureDolby":1,"hasFeatureHuge":0,"hasIMAX":1,"hasLoveseat":0,"hasPark":1,"hasServiceTicket":1,"hasVIP":1,"hasWifi":1},"isETicket":true,"isTicket":true,"latitude":39.92469,"longitude":116.591354,"minPrice":4000,"movieCount":13,"ratingFinal":8.815628,"showtimeCount":150},{"address":"朝阳区湖景东路11号新奥购物中心B1(东A口)","baiduLatitude":40.005844,"baiduLongitude":116.40042,"cinameName":"CGV星星影城（北京奥体店）","cinemaId":2618,"couponActivityList":[{"desc":"温州银行信用卡10元购票（周三、六10点起）","id":232,"isSelected":false,"tag":"温州银行10元购票","url":"http://feature.mtime.cn/mobile/item/2016/bank/?3 "}],"districtID":1362,"feature":{"has3D":1,"hasFeature4D":1,"hasFeature4K":0,"hasFeatureDolby":0,"hasFeatureHuge":0,"hasIMAX":0,"hasLoveseat":0,"hasPark":1,"hasServiceTicket":1,"hasVIP":1,"hasWifi":1},"isETicket":true,"isTicket":true,"latitude":40.00283,"longitude":116.39598,"minPrice":4500,"movieCount":11,"ratingFinal":7.590903,"showtimeCount":88},{"address":"北京市大兴区欣宁大街15号7-03-122-C1","baiduLatitude":39.796177,"baiduLongitude":116.33157,"cinameName":"金逸国际影城荟聚店","cinemaId":6413,"couponActivityList":[{"desc":"温州银行信用卡10元购票（周三、六10点起）","id":232,"isSelected":false,"tag":"温州银行10元购票","url":"http://feature.mtime.cn/mobile/item/2016/bank/?3 "}],"districtID":1364,"feature":{"has3D":1,"hasFeature4D":0,"hasFeature4K":1,"hasFeatureDolby":0,"hasFeatureHuge":0,"hasIMAX":1,"hasLoveseat":1,"hasPark":1,"hasServiceTicket":1,"hasVIP":1,"hasWifi":0},"isETicket":true,"isTicket":true,"latitude":39.79259,"longitude":116.32781,"minPrice":3300,"movieCount":28,"ratingFinal":7.4644046,"showtimeCount":277},{"address":"北京市丰台区蒲黄榆路28号芳群园一区","baiduLatitude":39.870182,"baiduLongitude":116.42855,"cinameName":"博纳国际影城方庄店","cinemaId":2725,"couponActivityList":[{"desc":"温州银行信用卡10元购票（周三、六10点起）","id":232,"isSelected":false,"tag":"温州银行10元购票","url":"http://feature.mtime.cn/mobile/item/2016/bank/?3 "}],"districtID":1367,"feature":{"has3D":1,"hasFeature4D":0,"hasFeature4K":0,"hasFeatureDolby":0,"hasFeatureHuge":0,"hasIMAX":0,"hasLoveseat":0,"hasPark":1,"hasServiceTicket":1,"hasVIP":1,"hasWifi":0},"isETicket":true,"isTicket":true,"latitude":39.864033,"longitude":116.42208,"minPrice":4900,"movieCount":21,"ratingFinal":8.314534,"showtimeCount":168},{"address":"北京石景山区 石景山路乙18号万达广场3层","baiduLatitude":39.911564,"baiduLongitude":116.23272,"cinameName":"北京万达国际影城石景山店","cinemaId":2148,"couponActivityList":[{"desc":"温州银行信用卡10元购票（周三、六10点起）","id":232,"isSelected":false,"tag":"温州银行10元购票","url":"http://feature.mtime.cn/mobile/item/2016/bank/?3 "}],"districtID":1372,"feature":{"has3D":1,"hasFeature4D":0,"hasFeature4K":0,"hasFeatureDolby":0,"hasFeatureHuge":0,"hasIMAX":1,"hasLoveseat":0,"hasPark":1,"hasServiceTicket":1,"hasVIP":1,"hasWifi":0},"isETicket":true,"isTicket":true,"latitude":39.906807,"longitude":116.227715,"minPrice":4300,"movieCount":8,"ratingFinal":7.03506,"showtimeCount":125},{"address":"北京昌平区 立汤路186号龙德广场五层","baiduLatitude":40.06669,"baiduLongitude":116.4223,"cinameName":"北京万达国际影城天通苑店","cinemaId":1811,"couponActivityList":[{"desc":"温州银行信用卡10元购票（周三、六10点起）","id":232,"isSelected":false,"tag":"温州银行10元购票","url":"http://feature.mtime.cn/mobile/item/2016/bank/?3 "}],"districtID":1361,"feature":{"has3D":1,"hasFeature4D":0,"hasFeature4K":0,"hasFeatureDolby":0,"hasFeatureHuge":0,"hasIMAX":1,"hasLoveseat":0,"hasPark":1,"hasServiceTicket":1,"hasVIP":1,"hasWifi":0},"isETicket":true,"isTicket":true,"latitude":40.061455,"longitude":116.41757,"minPrice":4300,"movieCount":7,"ratingFinal":7.0624175,"showtimeCount":117},{"address":"北京市西城区马连道路25号新年华购物中心5层","baiduLatitude":39.883175,"baiduLongitude":116.332985,"cinameName":"北京耀莱成龙马连道店","cinemaId":3728,"couponActivityList":[{"desc":"温州银行信用卡10元购票（周三、六10点起）","id":232,"isSelected":false,"tag":"温州银行10元购票","url":"http://feature.mtime.cn/mobile/item/2016/bank/?3 "}],"districtID":1375,"feature":{"has3D":1,"hasFeature4D":0,"hasFeature4K":0,"hasFeatureDolby":0,"hasFeatureHuge":0,"hasIMAX":0,"hasLoveseat":0,"hasPark":1,"hasServiceTicket":1,"hasVIP":0,"hasWifi":1},"isETicket":true,"isTicket":true,"latitude":39.88346,"longitude":116.32651,"minPrice":4300,"movieCount":9,"ratingFinal":8.207672,"showtimeCount":43},{"address":"北京市海淀区新街口外大街25号","baiduLatitude":39.959164,"baiduLongitude":116.37739,"cinameName":"中影国际影城北京小西天店","cinemaId":1023,"couponActivityList":[{"desc":"温州银行信用卡10元购票（周三、六10点起）","id":232,"isSelected":false,"tag":"温州银行10元购票","url":"http://feature.mtime.cn/mobile/item/2016/bank/?3 "}],"districtID":1368,"feature":{"has3D":1,"hasFeature4D":0,"hasFeature4K":0,"hasFeatureDolby":0,"hasFeatureHuge":0,"hasIMAX":0,"hasLoveseat":0,"hasPark":1,"hasServiceTicket":1,"hasVIP":0,"hasWifi":0},"isETicket":true,"isTicket":true,"latitude":39.952877,"longitude":116.37132,"minPrice":2800,"movieCount":9,"ratingFinal":6.9903426,"showtimeCount":49},{"address":"北京市海淀区中关村大街19号新中关购物中心B1层","baiduLatitude":39.98439,"baiduLongitude":116.32173,"cinameName":"金逸中关村店","cinemaId":1801,"couponActivityList":[{"desc":"温州银行信用卡10元购票（周三、六10点起）","id":232,"isSelected":false,"tag":"温州银行10元购票","url":"http://feature.mtime.cn/mobile/item/2016/bank/?3 "}],"districtID":1368,"feature":{"has3D":1,"hasFeature4D":0,"hasFeature4K":0,"hasFeatureDolby":1,"hasFeatureHuge":0,"hasIMAX":0,"hasLoveseat":0,"hasPark":1,"hasServiceTicket":1,"hasVIP":1,"hasWifi":1},"isETicket":true,"isTicket":true,"latitude":39.978306,"longitude":116.31569,"minPrice":5300,"movieCount":29,"ratingFinal":6.8908305,"showtimeCount":207},{"address":"北京海淀区海淀区清河中街68号五彩城购物中心东区7层","baiduLatitude":40.036102,"baiduLongitude":116.34124,"cinameName":"CGV星聚汇影城（北京清河店）","cinemaId":3667,"couponActivityList":[{"desc":"温州银行信用卡10元购票（周三、六10点起）","id":232,"isSelected":false,"tag":"温州银行10元购票","url":"http://feature.mtime.cn/mobile/item/2016/bank/?3 "}],"districtID":1368,"feature":{"has3D":1,"hasFeature4D":0,"hasFeature4K":0,"hasFeatureDolby":0,"hasFeatureHuge":0,"hasIMAX":0,"hasLoveseat":0,"hasPark":1,"hasServiceTicket":1,"hasVIP":1,"hasWifi":0},"isETicket":true,"isTicket":true,"latitude":40.027485,"longitude":116.3356,"minPrice":5900,"movieCount":12,"ratingFinal":8.037362,"showtimeCount":92},{"address":"北京丰台区马家堡东路101号院10号商业楼银泰百货F6","baiduLatitude":39.85072,"baiduLongitude":116.392365,"cinameName":"华谊兄弟北京影院（洋桥店）","cinemaId":3525,"couponActivityList":[{"desc":"温州银行信用卡10元购票（周三、六10点起）","id":232,"isSelected":false,"tag":"温州银行10元购票","url":"http://feature.mtime.cn/mobile/item/2016/bank/?3 "}],"districtID":1367,"feature":{"has3D":1,"hasFeature4D":0,"hasFeature4K":0,"hasFeatureDolby":0,"hasFeatureHuge":0,"hasIMAX":1,"hasLoveseat":1,"hasPark":0,"hasServiceTicket":1,"hasVIP":1,"hasWifi":1},"isETicket":true,"isTicket":true,"latitude":39.845016,"longitude":116.38636,"minPrice":4000,"movieCount":25,"ratingFinal":6.859256,"showtimeCount":207},{"address":"北京市朝阳区酒仙桥路18号颐堤港四层","baiduLatitude":39.97587,"baiduLongitude":116.49734,"cinameName":"CGV星星影城（北京颐堤港店）","cinemaId":3091,"couponActivityList":[{"desc":"温州银行信用卡10元购票（周三、六10点起）","id":232,"isSelected":false,"tag":"温州银行10元购票","url":"http://feature.mtime.cn/mobile/item/2016/bank/?3 "}],"districtID":1362,"feature":{"has3D":1,"hasFeature4D":0,"hasFeature4K":0,"hasFeatureDolby":0,"hasFeatureHuge":0,"hasIMAX":0,"hasLoveseat":1,"hasPark":1,"hasServiceTicket":1,"hasVIP":0,"hasWifi":1},"isETicket":true,"isTicket":true,"latitude":39.970562,"longitude":116.49036,"minPrice":5900,"movieCount":23,"ratingFinal":7.7920327,"showtimeCount":131},{"address":"金融大街18号金融街购物中心二期地下一层","baiduLatitude":39.92149,"baiduLongitude":116.36694,"cinameName":"首都影院金融街店","cinemaId":3194,"couponActivityList":[{"desc":"温州银行信用卡10元购票（周三、六10点起）","id":232,"isSelected":false,"tag":"温州银行10元购票","url":"http://feature.mtime.cn/mobile/item/2016/bank/?3 "}],"districtID":1375,"feature":{"has3D":1,"hasFeature4D":0,"hasFeature4K":0,"hasFeatureDolby":0,"hasFeatureHuge":0,"hasIMAX":0,"hasLoveseat":0,"hasPark":1,"hasServiceTicket":1,"hasVIP":1,"hasWifi":0},"isETicket":true,"isTicket":true,"latitude":39.91509,"longitude":116.360435,"minPrice":4500,"movieCount":16,"ratingFinal":7.8800364,"showtimeCount":87},{"address":"北京市朝阳区双桥路3号东星时尚广场5层（八通线城铁双桥站南50米）","baiduLatitude":39.914562,"baiduLongitude":116.58256,"cinameName":"金逸北京双桥店","cinemaId":3579,"couponActivityList":[{"desc":"温州银行信用卡10元购票（周三、六10点起）","id":232,"isSelected":false,"tag":"温州银行10元购票","url":"http://feature.mtime.cn/mobile/item/2016/bank/?3 "}],"districtID":1362,"feature":{"has3D":1,"hasFeature4D":0,"hasFeature4K":0,"hasFeatureDolby":0,"hasFeatureHuge":0,"hasIMAX":0,"hasLoveseat":0,"hasPark":1,"hasServiceTicket":1,"hasVIP":1,"hasWifi":0},"isETicket":true,"isTicket":true,"latitude":39.90843,"longitude":116.57672,"minPrice":3800,"movieCount":24,"ratingFinal":6.4717693,"showtimeCount":243},{"address":"北京市崇文区崇文门外大街18号国瑞城首层、地下二层","baiduLatitude":39.90357,"baiduLongitude":116.42668,"cinameName":"北京百老汇影城国瑞购物中心店","cinemaId":2271,"couponActivityList":[{"desc":"温州银行信用卡10元购票（周三、六10点起）","id":232,"isSelected":false,"tag":"温州银行10元购票","url":"http://feature.mtime.cn/mobile/item/2016/bank/?3 "}],"districtID":1363,"feature":{"has3D":1,"hasFeature4D":0,"hasFeature4K":0,"hasFeatureDolby":0,"hasFeatureHuge":0,"hasIMAX":0,"hasLoveseat":0,"hasPark":1,"hasServiceTicket":1,"hasVIP":1,"hasWifi":0},"isETicket":true,"isTicket":true,"latitude":39.8978,"longitude":116.41901,"minPrice":5000,"movieCount":23,"ratingFinal":7.302133,"showtimeCount":106},{"address":"海淀区成府路23号","baiduLatitude":39.99915,"baiduLongitude":116.346,"cinameName":"五道口工人俱乐部影城","cinemaId":1015,"couponActivityList":[{"desc":"温州银行信用卡10元购票（周三、六10点起）","id":232,"isSelected":false,"tag":"温州银行10元购票","url":"http://feature.mtime.cn/mobile/item/2016/bank/?3 "}],"districtID":1368,"feature":{"has3D":1,"hasFeature4D":0,"hasFeature4K":0,"hasFeatureDolby":0,"hasFeatureHuge":0,"hasIMAX":0,"hasLoveseat":0,"hasPark":1,"hasServiceTicket":1,"hasVIP":0,"hasWifi":1},"isETicket":true,"isTicket":true,"latitude":39.993412,"longitude":116.33927,"minPrice":3500,"movieCount":11,"ratingFinal":5.280656,"showtimeCount":49},{"address":"北京亦庄经济开发区文化园东路6号","baiduLatitude":39.816845,"baiduLongitude":116.509926,"cinameName":"大料国际影城","cinemaId":2842,"couponActivityList":[{"desc":"温州银行信用卡10元购票（周三、六10点起）","id":232,"isSelected":false,"tag":"温州银行10元购票","url":"http://feature.mtime.cn/mobile/item/2016/bank/?3 "}],"districtID":1364,"feature":{"has3D":1,"hasFeature4D":0,"hasFeature4K":0,"hasFeatureDolby":0,"hasFeatureHuge":0,"hasIMAX":0,"hasLoveseat":0,"hasPark":1,"hasServiceTicket":1,"hasVIP":1,"hasWifi":0},"isETicket":true,"isTicket":true,"latitude":39.810863,"longitude":116.50547,"minPrice":4500,"movieCount":16,"ratingFinal":7.6841803,"showtimeCount":86},{"address":"北京市丰台区南三环西路凯德MALL大峡谷购物中心5层","baiduLatitude":39.860462,"baiduLongitude":116.373474,"cinameName":"保利国际影城北京大峡谷店","cinemaId":2736,"couponActivityList":[{"desc":"温州银行信用卡10元购票（周三、六10点起）","id":232,"isSelected":false,"tag":"温州银行10元购票","url":"http://feature.mtime.cn/mobile/item/2016/bank/?3 "}],"districtID":1367,"feature":{"has3D":1,"hasFeature4D":0,"hasFeature4K":0,"hasFeatureDolby":1,"hasFeatureHuge":0,"hasIMAX":0,"hasLoveseat":0,"hasPark":1,"hasServiceTicket":1,"hasVIP":1,"hasWifi":1},"isETicket":true,"isTicket":true,"latitude":39.854668,"longitude":116.36621,"minPrice":5000,"movieCount":17,"ratingFinal":8.193626,"showtimeCount":123},{"address":"北京市朝阳区七圣中街12号院爱琴海购物中心6层","baiduLatitude":39.976685,"baiduLongitude":116.44273,"cinameName":"北京红星太平洋影城","cinemaId":4358,"couponActivityList":[{"desc":"温州银行信用卡10元购票（周三、六10点起）","id":232,"isSelected":false,"tag":"温州银行10元购票","url":"http://feature.mtime.cn/mobile/item/2016/bank/?3 "}],"districtID":1362,"feature":{"has3D":1,"hasFeature4D":0,"hasFeature4K":1,"hasFeatureDolby":0,"hasFeatureHuge":1,"hasIMAX":0,"hasLoveseat":1,"hasPark":1,"hasServiceTicket":1,"hasVIP":1,"hasWifi":1},"isETicket":true,"isTicket":true,"latitude":39.9718,"longitude":116.43628,"minPrice":4500,"movieCount":28,"ratingFinal":8.041007,"showtimeCount":250},{"address":"北京市怀柔区青春路15号四层 （怀柔联通对面）","baiduLatitude":40.32416,"baiduLongitude":116.63618,"cinameName":"北京怀柔传奇瑞丽影城","cinemaId":2647,"couponActivityList":[{"desc":"温州银行信用卡10元购票（周三、六10点起）","id":232,"isSelected":false,"tag":"温州银行10元购票","url":"http://feature.mtime.cn/mobile/item/2016/bank/?3 "}],"districtID":1693,"feature":{"has3D":1,"hasFeature4D":0,"hasFeature4K":0,"hasFeatureDolby":0,"hasFeatureHuge":0,"hasIMAX":0,"hasLoveseat":0,"hasPark":1,"hasServiceTicket":1,"hasVIP":0,"hasWifi":0},"isETicket":true,"isTicket":true,"latitude":40.31821,"longitude":116.62984,"minPrice":4300,"movieCount":12,"ratingFinal":6.4920325,"showtimeCount":42},{"address":"北京市朝阳区三丰北里2号楼悠唐广场B1层","baiduLatitude":39.927555,"baiduLongitude":116.44598,"cinameName":"北京博纳朝阳门旗舰店","cinemaId":2281,"couponActivityList":[{"desc":"温州银行信用卡10元购票（周三、六10点起）","id":232,"isSelected":false,"tag":"温州银行10元购票","url":"http://feature.mtime.cn/mobile/item/2016/bank/?3 "}],"districtID":1362,"feature":{"has3D":1,"hasFeature4D":0,"hasFeature4K":0,"hasFeatureDolby":0,"hasFeatureHuge":0,"hasIMAX":1,"hasLoveseat":0,"hasPark":1,"hasServiceTicket":1,"hasVIP":1,"hasWifi":0},"isETicket":true,"isTicket":true,"latitude":39.922226,"longitude":116.43884,"minPrice":4400,"movieCount":15,"ratingFinal":6.7652345,"showtimeCount":91},{"address":"北京市东城区香河园路1号当代MOMA北区T4座","baiduLatitude":39.955894,"baiduLongitude":116.44553,"cinameName":"北京百老汇电影中心","cinemaId":2429,"couponActivityList":[{"desc":"温州银行信用卡10元购票（周三、六10点起）","id":232,"isSelected":false,"tag":"温州银行10元购票","url":"http://feature.mtime.cn/mobile/item/2016/bank/?3 "}],"districtID":1365,"feature":{"has3D":1,"hasFeature4D":0,"hasFeature4K":0,"hasFeatureDolby":0,"hasFeatureHuge":0,"hasIMAX":0,"hasLoveseat":0,"hasPark":0,"hasServiceTicket":1,"hasVIP":1,"hasWifi":0},"isETicket":true,"isTicket":true,"latitude":39.94995,"longitude":116.43796,"minPrice":4500,"movieCount":16,"ratingFinal":8.6183605,"showtimeCount":35},{"address":"北京市王府井大街新东安广场6层","baiduLatitude":39.92114,"baiduLongitude":116.41813,"cinameName":"北京百老汇影城apm购物中心店","cinemaId":1004,"couponActivityList":[{"desc":"温州银行信用卡10元购票（周三、六10点起）","id":232,"isSelected":false,"tag":"温州银行10元购票","url":"http://feature.mtime.cn/mobile/item/2016/bank/?3 "}],"districtID":1365,"feature":{"has3D":1,"hasFeature4D":0,"hasFeature4K":0,"hasFeatureDolby":0,"hasFeatureHuge":0,"hasIMAX":0,"hasLoveseat":1,"hasPark":1,"hasServiceTicket":1,"hasVIP":0,"hasWifi":1},"isETicket":true,"isTicket":true,"latitude":39.913292,"longitude":116.41163,"minPrice":4500,"movieCount":23,"ratingFinal":7.089498,"showtimeCount":109},{"address":"北京市通州区杨庄北里天时名苑14号楼F4-01","baiduLatitude":39.910168,"baiduLongitude":116.64274,"cinameName":"北京博纳通州店","cinemaId":3109,"couponActivityList":[{"desc":"温州银行信用卡10元购票（周三、六10点起）","id":232,"isSelected":false,"tag":"温州银行10元购票","url":"http://feature.mtime.cn/mobile/item/2016/bank/?3 "}],"districtID":3582,"feature":{"has3D":1,"hasFeature4D":0,"hasFeature4K":0,"hasFeatureDolby":0,"hasFeatureHuge":0,"hasIMAX":0,"hasLoveseat":0,"hasPark":1,"hasServiceTicket":1,"hasVIP":0,"hasWifi":0},"isETicket":true,"isTicket":true,"latitude":39.903538,"longitude":116.63665,"minPrice":3300,"movieCount":29,"ratingFinal":5.5824175,"showtimeCount":131},{"address":"北京市海淀区复兴路51号凯德晶品购物中心4层","baiduLatitude":39.914356,"baiduLongitude":116.30393,"cinameName":"博纳影城万寿路店","cinemaId":3242,"couponActivityList":[{"desc":"温州银行信用卡10元购票（周三、六10点起）","id":232,"isSelected":false,"tag":"温州银行10元购票","url":"http://feature.mtime.cn/mobile/item/2016/bank/?3 "}],"districtID":1368,"feature":{"has3D":1,"hasFeature4D":0,"hasFeature4K":0,"hasFeatureDolby":0,"hasFeatureHuge":0,"hasIMAX":0,"hasLoveseat":0,"hasPark":1,"hasServiceTicket":1,"hasVIP":0,"hasWifi":0},"isETicket":true,"isTicket":true,"latitude":39.90792,"longitude":116.29638,"minPrice":4900,"movieCount":30,"ratingFinal":7.713863,"showtimeCount":197},{"address":"北京市昌平区南环路悦荟万科广场8层","baiduLatitude":40.218002,"baiduLongitude":116.24633,"cinameName":"首都电影院昌平店","cinemaId":4608,"couponActivityList":[{"desc":"温州银行信用卡10元购票（周三、六10点起）","id":232,"isSelected":false,"tag":"温州银行10元购票","url":"http://feature.mtime.cn/mobile/item/2016/bank/?3 "}],"districtID":1361,"feature":{"has3D":1,"hasFeature4D":0,"hasFeature4K":0,"hasFeatureDolby":0,"hasFeatureHuge":0,"hasIMAX":0,"hasLoveseat":0,"hasPark":1,"hasServiceTicket":0,"hasVIP":0,"hasWifi":0},"isETicket":true,"isTicket":true,"latitude":40.212845,"longitude":116.27493,"minPrice":4500,"movieCount":24,"ratingFinal":6.784167,"showtimeCount":123},{"address":"北京市育知东路30号华联商厦4层","baiduLatitude":40.07762,"baiduLongitude":116.34374,"cinameName":"北京沃美影城回龙观店","cinemaId":5808,"couponActivityList":[{"desc":"温州银行信用卡10元购票（周三、六10点起）","id":232,"isSelected":false,"tag":"温州银行10元购票","url":"http://feature.mtime.cn/mobile/item/2016/bank/?3 "}],"districtID":1361,"feature":{"has3D":1,"hasFeature4D":0,"hasFeature4K":0,"hasFeatureDolby":1,"hasFeatureHuge":0,"hasIMAX":0,"hasLoveseat":0,"hasPark":1,"hasServiceTicket":1,"hasVIP":0,"hasWifi":1},"isETicket":true,"isTicket":true,"latitude":40.07837,"longitude":116.33368,"minPrice":4500,"movieCount":14,"ratingFinal":6.644183,"showtimeCount":96},{"address":"北京市东城区金宝街88号","baiduLatitude":39.921307,"baiduLongitude":116.427734,"cinameName":"北京百丽宫影城金宝汇店","cinemaId":2201,"couponActivityList":[{"desc":"温州银行信用卡10元购票（周三、六10点起）","id":232,"isSelected":false,"tag":"温州银行10元购票","url":"http://feature.mtime.cn/mobile/item/2016/bank/?3 "}],"districtID":1365,"feature":{"has3D":1,"hasFeature4D":0,"hasFeature4K":0,"hasFeatureDolby":0,"hasFeatureHuge":0,"hasIMAX":0,"hasLoveseat":0,"hasPark":1,"hasServiceTicket":1,"hasVIP":0,"hasWifi":0},"isETicket":true,"isTicket":true,"latitude":39.915596,"longitude":116.42032,"minPrice":4500,"movieCount":17,"ratingFinal":7.318174,"showtimeCount":81},{"address":"北京市大兴区金星西路3号绿地缤纷城4层","baiduLatitude":39.770355,"baiduLongitude":116.3401,"cinameName":"保利影城缤纷城店","cinemaId":3453,"couponActivityList":[{"desc":"温州银行信用卡10元购票（周三、六10点起）","id":232,"isSelected":false,"tag":"温州银行10元购票","url":"http://feature.mtime.cn/mobile/item/2016/bank/?3 "}],"districtID":1364,"feature":{"has3D":1,"hasFeature4D":0,"hasFeature4K":0,"hasFeatureDolby":0,"hasFeatureHuge":0,"hasIMAX":0,"hasLoveseat":0,"hasPark":1,"hasServiceTicket":1,"hasVIP":1,"hasWifi":1},"isETicket":true,"isTicket":true,"latitude":39.763943,"longitude":116.3341,"minPrice":4500,"movieCount":18,"ratingFinal":8.27921,"showtimeCount":102},{"address":"东城区东长安街1号东方广场地下一层BB65","baiduLatitude":39.915707,"baiduLongitude":116.420906,"cinameName":"北京百老汇影城东方广场店","cinemaId":1002,"couponActivityList":[{"desc":"温州银行信用卡10元购票（周三、六10点起）","id":232,"isSelected":false,"tag":"温州银行10元购票","url":"http://feature.mtime.cn/mobile/item/2016/bank/?3 "}],"districtID":1365,"feature":{"has3D":1,"hasFeature4D":0,"hasFeature4K":0,"hasFeatureDolby":0,"hasFeatureHuge":0,"hasIMAX":0,"hasLoveseat":0,"hasPark":1,"hasServiceTicket":1,"hasVIP":1,"hasWifi":0},"isETicket":true,"isTicket":true,"latitude":39.908863,"longitude":116.41493,"minPrice":4500,"movieCount":16,"ratingFinal":6.612387,"showtimeCount":81},{"address":"东城区东中街9号东环广场B座地下一层","baiduLatitude":39.942425,"baiduLongitude":116.44259,"cinameName":"东环影城","cinemaId":1006,"couponActivityList":[{"desc":"温州银行信用卡10元购票（周三、六10点起）","id":232,"isSelected":false,"tag":"温州银行10元购票","url":"http://feature.mtime.cn/mobile/item/2016/bank/?3 "}],"districtID":1365,"feature":{"has3D":1,"hasFeature4D":0,"hasFeature4K":0,"hasFeatureDolby":0,"hasFeatureHuge":0,"hasIMAX":0,"hasLoveseat":0,"hasPark":1,"hasServiceTicket":1,"hasVIP":1,"hasWifi":0},"isETicket":true,"isTicket":true,"latitude":39.93674,"longitude":116.43624,"minPrice":4500,"movieCount":6,"ratingFinal":6.8387704,"showtimeCount":26},{"address":"北京市海淀区上地南口华联商厦4F","baiduLatitude":40.03451,"baiduLongitude":116.31817,"cinameName":"橙天嘉禾影城北京上地店","cinemaId":2159,"couponActivityList":[{"desc":"温州银行信用卡10元购票（周三、六10点起）","id":232,"isSelected":false,"tag":"温州银行10元购票","url":"http://feature.mtime.cn/mobile/item/2016/bank/?3 "}],"districtID":1368,"feature":{"has3D":1,"hasFeature4D":0,"hasFeature4K":0,"hasFeatureDolby":0,"hasFeatureHuge":0,"hasIMAX":0,"hasLoveseat":0,"hasPark":1,"hasServiceTicket":1,"hasVIP":0,"hasWifi":0},"isETicket":true,"isTicket":true,"latitude":40.028206,"longitude":116.31234,"minPrice":6000,"movieCount":13,"ratingFinal":7.538957,"showtimeCount":93},{"address":"北京市昌平区昌崔路203号果岭假日广场四楼大地数字影院","baiduLatitude":40.22853,"baiduLongitude":116.27145,"cinameName":"大地昌平菓岭假日广场","cinemaId":2616,"couponActivityList":[{"desc":"温州银行信用卡10元购票（周三、六10点起）","id":232,"isSelected":false,"tag":"温州银行10元购票","url":"http://feature.mtime.cn/mobile/item/2016/bank/?3 "}],"districtID":1361,"feature":{"has3D":1,"hasFeature4D":0,"hasFeature4K":0,"hasFeatureDolby":0,"hasFeatureHuge":0,"hasIMAX":0,"hasLoveseat":0,"hasPark":1,"hasServiceTicket":1,"hasVIP":0,"hasWifi":0},"isETicket":true,"isTicket":true,"latitude":40.222008,"longitude":116.26368,"minPrice":2900,"movieCount":14,"ratingFinal":7.6864896,"showtimeCount":77},{"address":"北京市朝阳区建国门外大街1号国贸商城区域三地下一层3B120","baiduLatitude":39.91817,"baiduLongitude":116.466385,"cinameName":"北京百丽宫影城国贸店","cinemaId":2929,"couponActivityList":[{"desc":"温州银行信用卡10元购票（周三、六10点起）","id":232,"isSelected":false,"tag":"温州银行10元购票","url":"http://feature.mtime.cn/mobile/item/2016/bank/?3 "}],"districtID":1362,"feature":{"has3D":1,"hasFeature4D":0,"hasFeature4K":0,"hasFeatureDolby":0,"hasFeatureHuge":0,"hasIMAX":0,"hasLoveseat":0,"hasPark":1,"hasServiceTicket":1,"hasVIP":1,"hasWifi":0},"isETicket":true,"isTicket":true,"latitude":39.91,"longitude":116.4602,"minPrice":5000,"movieCount":8,"ratingFinal":8.740041,"showtimeCount":40},{"address":"北京市通州区翠景北里21号京通罗斯福广场五层","baiduLatitude":39.895702,"baiduLongitude":116.664856,"cinameName":"银兴菲林影城通州店","cinemaId":6129,"couponActivityList":[{"desc":"温州银行信用卡10元购票（周三、六10点起）","id":232,"isSelected":false,"tag":"温州银行10元购票","url":"http://feature.mtime.cn/mobile/item/2016/bank/?3 "}],"districtID":3582,"feature":{"has3D":1,"hasFeature4D":0,"hasFeature4K":0,"hasFeatureDolby":1,"hasFeatureHuge":0,"hasIMAX":0,"hasLoveseat":0,"hasPark":1,"hasServiceTicket":1,"hasVIP":0,"hasWifi":0},"isETicket":true,"isTicket":true,"latitude":39.889484,"longitude":116.65847,"minPrice":4000,"movieCount":19,"ratingFinal":6.9472523,"showtimeCount":130},{"address":"北京海淀区玉海园五里22号配套商业楼（原吉彩体育馆）","baiduLatitude":39.92899,"baiduLongitude":116.26607,"cinameName":"橙天嘉禾影城北京吉彩店","cinemaId":3678,"couponActivityList":[{"desc":"温州银行信用卡10元购票（周三、六10点起）","id":232,"isSelected":false,"tag":"温州银行10元购票","url":"http://feature.mtime.cn/mobile/item/2016/bank/?3 "}],"districtID":1368,"feature":{"has3D":1,"hasFeature4D":0,"hasFeature4K":1,"hasFeatureDolby":0,"hasFeatureHuge":0,"hasIMAX":0,"hasLoveseat":0,"hasPark":1,"hasServiceTicket":1,"hasVIP":0,"hasWifi":0},"isETicket":true,"isTicket":true,"latitude":39.922825,"longitude":116.259636,"minPrice":4000,"movieCount":12,"ratingFinal":7.7433605,"showtimeCount":103},{"address":"北京市昌平区回龙观西大街111号华联商厦三层","baiduLatitude":40.08176,"baiduLongitude":116.32601,"cinameName":"星美影城回龙观店","cinemaId":1997,"couponActivityList":[{"desc":"温州银行信用卡10元购票（周三、六10点起）","id":232,"isSelected":false,"tag":"温州银行10元购票","url":"http://feature.mtime.cn/mobile/item/2016/bank/?3 "}],"districtID":1361,"feature":{"has3D":1,"hasFeature4D":0,"hasFeature4K":0,"hasFeatureDolby":0,"hasFeatureHuge":0,"hasIMAX":0,"hasLoveseat":1,"hasPark":1,"hasServiceTicket":1,"hasVIP":1,"hasWifi":1},"isETicket":true,"isTicket":true,"latitude":40.075756,"longitude":116.31908,"minPrice":3900,"movieCount":11,"ratingFinal":6.318583,"showtimeCount":72},{"address":"北京市丰台区东高地万源北路航天万源广场五楼","baiduLatitude":39.80918,"baiduLongitude":116.42983,"cinameName":"保利万源影城","cinemaId":2166,"couponActivityList":[{"desc":"温州银行信用卡10元购票（周三、六10点起）","id":232,"isSelected":false,"tag":"温州银行10元购票","url":"http://feature.mtime.cn/mobile/item/2016/bank/?3 "}],"districtID":1367,"feature":{"has3D":1,"hasFeature4D":0,"hasFeature4K":0,"hasFeatureDolby":0,"hasFeatureHuge":0,"hasIMAX":0,"hasLoveseat":0,"hasPark":1,"hasServiceTicket":1,"hasVIP":0,"hasWifi":0},"isETicket":true,"isTicket":true,"latitude":39.803787,"longitude":116.4271,"minPrice":4000,"movieCount":11,"ratingFinal":6.3543954,"showtimeCount":58},{"address":"朝阳区三里屯太古里广场地下一层（三里屯酒吧街南口西侧）","baiduLatitude":39.94943,"baiduLongitude":116.463486,"cinameName":"美嘉欢乐三里屯店","cinemaId":2101,"couponActivityList":[{"desc":"温州银行信用卡10元购票（周三、六10点起）","id":232,"isSelected":false,"tag":"温州银行10元购票","url":"http://feature.mtime.cn/mobile/item/2016/bank/?3 "}],"districtID":1362,"feature":{"has3D":1,"hasFeature4D":0,"hasFeature4K":1,"hasFeatureDolby":1,"hasFeatureHuge":0,"hasIMAX":0,"hasLoveseat":0,"hasPark":1,"hasServiceTicket":1,"hasVIP":0,"hasWifi":1},"isETicket":true,"isTicket":true,"latitude":39.934376,"longitude":116.4549,"minPrice":8500,"movieCount":14,"ratingFinal":7.9082136,"showtimeCount":83},{"address":"北京王府井大街253号王府井百货大楼北馆8层","baiduLatitude":39.91965,"baiduLongitude":116.41696,"cinameName":"北京横店电影城","cinemaId":2524,"couponActivityList":[{"desc":"温州银行信用卡10元购票（周三、六10点起）","id":232,"isSelected":false,"tag":"温州银行10元购票","url":"http://feature.mtime.cn/mobile/item/2016/bank/?3 "}],"districtID":1365,"feature":{"has3D":1,"hasFeature4D":0,"hasFeature4K":0,"hasFeatureDolby":0,"hasFeatureHuge":0,"hasIMAX":0,"hasLoveseat":1,"hasPark":1,"hasServiceTicket":1,"hasVIP":1,"hasWifi":0},"isETicket":true,"isTicket":true,"latitude":39.913666,"longitude":116.41031,"minPrice":3500,"movieCount":24,"ratingFinal":7.4604917,"showtimeCount":130},{"address":"北京市海淀区文慧园北路9号空间蒙太奇大厦2层","baiduLatitude":39.958553,"baiduLongitude":116.36765,"cinameName":"17.5影城今典店","cinemaId":1786,"couponActivityList":[{"desc":"温州银行信用卡10元购票（周三、六10点起）","id":232,"isSelected":false,"tag":"温州银行10元购票","url":"http://feature.mtime.cn/mobile/item/2016/bank/?3 "}],"districtID":1368,"feature":{"has3D":1,"hasFeature4D":0,"hasFeature4K":0,"hasFeatureDolby":0,"hasFeatureHuge":0,"hasIMAX":0,"hasLoveseat":0,"hasPark":1,"hasServiceTicket":0,"hasVIP":1,"hasWifi":0},"isETicket":true,"isTicket":true,"latitude":39.953045,"longitude":116.36096,"minPrice":4000,"movieCount":17,"ratingFinal":5.2541075,"showtimeCount":154},{"address":"北京市朝阳区北三环东路22号","baiduLatitude":39.97462,"baiduLongitude":116.43053,"cinameName":"金鸡百花影城","cinemaId":1017,"couponActivityList":[{"desc":"温州银行信用卡10元购票（周三、六10点起）","id":232,"isSelected":false,"tag":"温州银行10元购票","url":"http://feature.mtime.cn/mobile/item/2016/bank/?3 "}],"districtID":1362,"feature":{"has3D":1,"hasFeature4D":0,"hasFeature4K":1,"hasFeatureDolby":1,"hasFeatureHuge":0,"hasIMAX":0,"hasLoveseat":1,"hasPark":1,"hasServiceTicket":1,"hasVIP":0,"hasWifi":1},"isETicket":true,"isTicket":true,"latitude":39.968914,"longitude":116.423935,"minPrice":4200,"movieCount":24,"ratingFinal":6.825924,"showtimeCount":116},{"address":"北京市朝阳区望京阜通西大街新荟城购物中心五层","baiduLatitude":40.00437,"baiduLongitude":116.48854,"cinameName":"保利DMC影城望京店","cinemaId":2770,"couponActivityList":[{"desc":"温州银行信用卡10元购票（周三、六10点起）","id":232,"isSelected":false,"tag":"温州银行10元购票","url":"http://feature.mtime.cn/mobile/item/2016/bank/?3 "}],"districtID":1362,"feature":{"has3D":1,"hasFeature4D":0,"hasFeature4K":0,"hasFeatureDolby":1,"hasFeatureHuge":0,"hasIMAX":0,"hasLoveseat":0,"hasPark":1,"hasServiceTicket":1,"hasVIP":1,"hasWifi":1},"isETicket":true,"isTicket":true,"latitude":39.998493,"longitude":116.482155,"minPrice":3000,"movieCount":14,"ratingFinal":7.6335163,"showtimeCount":101},{"address":"北京市西城区天桥南大街3号楼一层、二层（天桥艺术大厦南侧）","baiduLatitude":39.890682,"baiduLongitude":116.40536,"cinameName":"首都电影院（中华店）","cinemaId":8382,"couponActivityList":[{"desc":"温州银行信用卡10元购票（周三、六10点起）","id":232,"isSelected":false,"tag":"温州银行10元购票","url":"http://feature.mtime.cn/mobile/item/2016/bank/?3 "}],"districtID":1375,"feature":{"has3D":1,"hasFeature4D":0,"hasFeature4K":1,"hasFeatureDolby":0,"hasFeatureHuge":1,"hasIMAX":0,"hasLoveseat":0,"hasPark":1,"hasServiceTicket":1,"hasVIP":1,"hasWifi":1},"isETicket":true,"isTicket":true,"latitude":0,"longitude":0,"minPrice":4000,"movieCount":12,"ratingFinal":9.097329,"showtimeCount":66},{"address":"北京市朝阳区东大桥路9号芳草地大厦LG2-26","baiduLatitude":39.92488,"baiduLongitude":116.45618,"cinameName":"卢米埃芳草地影城","cinemaId":3908,"couponActivityList":[{"desc":"温州银行信用卡10元购票（周三、六10点起）","id":232,"isSelected":false,"tag":"温州银行10元购票","url":"http://feature.mtime.cn/mobile/item/2016/bank/?3 "}],"districtID":1362,"feature":{"has3D":1,"hasFeature4D":0,"hasFeature4K":0,"hasFeatureDolby":1,"hasFeatureHuge":0,"hasIMAX":0,"hasLoveseat":0,"hasPark":1,"hasServiceTicket":1,"hasVIP":1,"hasWifi":1},"isETicket":true,"isTicket":true,"latitude":39.919544,"longitude":116.44847,"minPrice":6500,"movieCount":6,"ratingFinal":9.248653,"showtimeCount":71},{"address":"北京市昌平区黄平路19号院龙旗购物中心3层","baiduLatitude":40.072296,"baiduLongitude":116.3533,"cinameName":"保利影城龙旗广场店","cinemaId":4236,"couponActivityList":[{"desc":"温州银行信用卡10元购票（周三、六10点起）","id":232,"isSelected":false,"tag":"温州银行10元购票","url":"http://feature.mtime.cn/mobile/item/2016/bank/?3 "}],"districtID":1361,"feature":{"has3D":1,"hasFeature4D":0,"hasFeature4K":1,"hasFeatureDolby":0,"hasFeatureHuge":0,"hasIMAX":0,"hasLoveseat":0,"hasPark":1,"hasServiceTicket":1,"hasVIP":0,"hasWifi":1},"isETicket":true,"isTicket":true,"latitude":40.06687,"longitude":116.34654,"minPrice":4000,"movieCount":18,"ratingFinal":7.4670324,"showtimeCount":133},{"address":"北京市朝阳区北苑路42号","baiduLatitude":40.03952,"baiduLongitude":116.42509,"cinameName":"北京K酷国际影城","cinemaId":2939,"couponActivityList":[{"desc":"温州银行信用卡10元购票（周三、六10点起）","id":232,"isSelected":false,"tag":"温州银行10元购票","url":"http://feature.mtime.cn/mobile/item/2016/bank/?3 "}],"districtID":1362,"feature":{"has3D":1,"hasFeature4D":0,"hasFeature4K":0,"hasFeatureDolby":0,"hasFeatureHuge":0,"hasIMAX":0,"hasLoveseat":0,"hasPark":1,"hasServiceTicket":1,"hasVIP":0,"hasWifi":0},"isETicket":true,"isTicket":true,"latitude":40.033245,"longitude":116.41828,"minPrice":4500,"movieCount":16,"ratingFinal":6.8560433,"showtimeCount":100},{"address":"北京市通州区运河西大街乔庄卜蜂莲花超市一层","baiduLatitude":39.897736,"baiduLongitude":116.69482,"cinameName":"米瑞酷影城（乔庄店）","cinemaId":4706,"couponActivityList":[{"desc":"温州银行信用卡10元购票（周三、六10点起）","id":232,"isSelected":false,"tag":"温州银行10元购票","url":"http://feature.mtime.cn/mobile/item/2016/bank/?3 "}],"districtID":3582,"feature":{"has3D":1,"hasFeature4D":0,"hasFeature4K":-1,"hasFeatureDolby":-1,"hasFeatureHuge":0,"hasIMAX":0,"hasLoveseat":0,"hasPark":1,"hasServiceTicket":0,"hasVIP":0,"hasWifi":0},"isETicket":true,"isTicket":true,"latitude":39.892097,"longitude":116.687096,"minPrice":3800,"movieCount":9,"ratingFinal":8.10518,"showtimeCount":46},{"address":"北京朝阳区清河营南街7号院华贸天地B1层步行街西侧（地铁13号线北苑站西北200米）","baiduLatitude":40.052147,"baiduLongitude":116.4393,"cinameName":"保利影城北苑华贸店","cinemaId":4292,"couponActivityList":[{"desc":"温州银行信用卡10元购票（周三、六10点起）","id":232,"isSelected":false,"tag":"温州银行10元购票","url":"http://feature.mtime.cn/mobile/item/2016/bank/?3 "}],"districtID":1362,"feature":{"has3D":1,"hasFeature4D":0,"hasFeature4K":0,"hasFeatureDolby":0,"hasFeatureHuge":0,"hasIMAX":0,"hasLoveseat":0,"hasPark":1,"hasServiceTicket":1,"hasVIP":0,"hasWifi":1},"isETicket":true,"isTicket":true,"latitude":40.04483,"longitude":116.4319,"minPrice":4000,"movieCount":8,"ratingFinal":7.987252,"showtimeCount":61},{"address":"北京市朝阳区朝阳北路17号北京华联常营购物中心西区4层","baiduLatitude":39.93198,"baiduLongitude":116.605644,"cinameName":"沃美影城常营店","cinemaId":4578,"couponActivityList":[{"desc":"温州银行信用卡10元购票（周三、六10点起）","id":232,"isSelected":false,"tag":"温州银行10元购票","url":"http://feature.mtime.cn/mobile/item/2016/bank/?3 "}],"districtID":1362,"feature":{"has3D":1,"hasFeature4D":0,"hasFeature4K":0,"hasFeatureDolby":0,"hasFeatureHuge":0,"hasIMAX":0,"hasLoveseat":0,"hasPark":1,"hasServiceTicket":1,"hasVIP":1,"hasWifi":1},"isETicket":true,"isTicket":true,"latitude":39.925995,"longitude":116.599625,"minPrice":4400,"movieCount":16,"ratingFinal":7.817033,"showtimeCount":113},{"address":"北京市朝阳区东坝中路38号金隅嘉品MALL5层","baiduLatitude":39.958942,"baiduLongitude":116.553986,"cinameName":"北京保利东坝影城","cinemaId":7403,"couponActivityList":[{"desc":"温州银行信用卡10元购票（周三、六10点起）","id":232,"isSelected":false,"tag":"温州银行10元购票","url":"http://feature.mtime.cn/mobile/item/2016/bank/?3 "}],"districtID":1362,"feature":{"has3D":1,"hasFeature4D":0,"hasFeature4K":1,"hasFeatureDolby":1,"hasFeatureHuge":0,"hasIMAX":1,"hasLoveseat":0,"hasPark":1,"hasServiceTicket":1,"hasVIP":0,"hasWifi":1},"isETicket":true,"isTicket":true,"latitude":39.950027,"longitude":116.54492,"minPrice":3000,"movieCount":17,"ratingFinal":7.525901,"showtimeCount":79},{"address":"朝阳区金汇路8号世界城E座地下一层(世贸天阶北侧)","baiduLatitude":39.923412,"baiduLongitude":116.4589,"cinameName":"星美影城世界城店","cinemaId":2368,"couponActivityList":[{"desc":"温州银行信用卡10元购票（周三、六10点起）","id":232,"isSelected":false,"tag":"温州银行10元购票","url":"http://feature.mtime.cn/mobile/item/2016/bank/?3 "}],"districtID":1362,"feature":{"has3D":1,"hasFeature4D":0,"hasFeature4K":0,"hasFeatureDolby":0,"hasFeatureHuge":0,"hasIMAX":0,"hasLoveseat":0,"hasPark":0,"hasServiceTicket":1,"hasVIP":1,"hasWifi":1},"isETicket":true,"isTicket":true,"latitude":39.918198,"longitude":116.45156,"minPrice":3400,"movieCount":13,"ratingFinal":7.237716,"showtimeCount":111},{"address":"北京市顺义区新顺南大街华联购物中心4楼","baiduLatitude":40.134117,"baiduLongitude":116.659035,"cinameName":"CGV星聚汇影城（北京顺义店)","cinemaId":4593,"couponActivityList":[{"desc":"温州银行信用卡10元购票（周三、六10点起）","id":232,"isSelected":false,"tag":"温州银行10元购票","url":"http://feature.mtime.cn/mobile/item/2016/bank/?3 "}],"districtID":1373,"feature":{"has3D":1,"hasFeature4D":0,"hasFeature4K":0,"hasFeatureDolby":0,"hasFeatureHuge":0,"hasIMAX":0,"hasLoveseat":0,"hasPark":1,"hasServiceTicket":1,"hasVIP":0,"hasWifi":0},"isETicket":true,"isTicket":true,"latitude":40.128998,"longitude":116.65313,"minPrice":4500,"movieCount":19,"ratingFinal":9.178754,"showtimeCount":167},{"address":"北京朝阳区曙光西里甲5号院24号楼1311","baiduLatitude":39.96796,"baiduLongitude":116.46465,"cinameName":"橙天嘉禾影城北京凤凰汇店","cinemaId":3314,"couponActivityList":[{"desc":"温州银行信用卡10元购票（周三、六10点起）","id":232,"isSelected":false,"tag":"温州银行10元购票","url":"http://feature.mtime.cn/mobile/item/2016/bank/?3 "}],"districtID":1362,"feature":{"has3D":1,"hasFeature4D":0,"hasFeature4K":1,"hasFeatureDolby":0,"hasFeatureHuge":0,"hasIMAX":0,"hasLoveseat":0,"hasPark":1,"hasServiceTicket":1,"hasVIP":0,"hasWifi":0},"isETicket":true,"isTicket":true,"latitude":39.963093,"longitude":116.45661,"minPrice":6000,"movieCount":14,"ratingFinal":6.53029,"showtimeCount":95},{"address":"北京市延庆县妫水北街39号1幢H座首层（金锣湾商业中心）沃尔玛旁","baiduLatitude":40.467846,"baiduLongitude":115.98273,"cinameName":"大地影院延庆金锣湾","cinemaId":3054,"couponActivityList":[{"desc":"温州银行信用卡10元购票（周三、六10点起）","id":232,"isSelected":false,"tag":"温州银行10元购票","url":"http://feature.mtime.cn/mobile/item/2016/bank/?3 "}],"districtID":1695,"feature":{"has3D":1,"hasFeature4D":0,"hasFeature4K":0,"hasFeatureDolby":0,"hasFeatureHuge":0,"hasIMAX":0,"hasLoveseat":0,"hasPark":1,"hasServiceTicket":1,"hasVIP":0,"hasWifi":0},"isETicket":true,"isTicket":true,"latitude":40.461445,"longitude":115.97649,"minPrice":3400,"movieCount":11,"ratingFinal":6.7727003,"showtimeCount":42},{"address":"北京通州马驹桥新海东路1号，豪润生活广场7层大地影院","baiduLatitude":39.766273,"baiduLongitude":116.55214,"cinameName":"大地通州马驹桥米拉","cinemaId":4674,"couponActivityList":[{"desc":"温州银行信用卡10元购票（周三、六10点起）","id":232,"isSelected":false,"tag":"温州银行10元购票","url":"http://feature.mtime.cn/mobile/item/2016/bank/?3 "}],"districtID":3582,"feature":{"has3D":1,"hasFeature4D":0,"hasFeature4K":0,"hasFeatureDolby":0,"hasFeatureHuge":0,"hasIMAX":0,"hasLoveseat":0,"hasPark":1,"hasServiceTicket":0,"hasVIP":0,"hasWifi":0},"isETicket":true,"isTicket":true,"latitude":39.76124,"longitude":116.54529,"minPrice":3400,"movieCount":10,"ratingFinal":7.3346643,"showtimeCount":59},{"address":"北京市房山区黄辛庄路口绿地缤纷城三层","baiduLatitude":39.763344,"baiduLongitude":116.16797,"cinameName":"SFC上影（房山缤纷城店）","cinemaId":7155,"couponActivityList":[{"desc":"温州银行信用卡10元购票（周三、六10点起）","id":232,"isSelected":false,"tag":"温州银行10元购票","url":"http://feature.mtime.cn/mobile/item/2016/bank/?3 "}],"districtID":1366,"feature":{"has3D":1,"hasFeature4D":1,"hasFeature4K":1,"hasFeatureDolby":0,"hasFeatureHuge":0,"hasIMAX":0,"hasLoveseat":0,"hasPark":1,"hasServiceTicket":1,"hasVIP":0,"hasWifi":1},"isETicket":true,"isTicket":true,"latitude":39.756664,"longitude":116.15986,"minPrice":3400,"movieCount":9,"ratingFinal":9.383043,"showtimeCount":89},{"address":"北京市海淀区西三旗建材中路新都购物广场一层","baiduLatitude":40.065865,"baiduLongitude":116.37198,"cinameName":"金逸北京新都店","cinemaId":2643,"couponActivityList":[{"desc":"温州银行信用卡10元购票（周三、六10点起）","id":232,"isSelected":false,"tag":"温州银行10元购票","url":"http://feature.mtime.cn/mobile/item/2016/bank/?3 "}],"districtID":1368,"feature":{"has3D":1,"hasFeature4D":0,"hasFeature4K":0,"hasFeatureDolby":0,"hasFeatureHuge":0,"hasIMAX":0,"hasLoveseat":0,"hasPark":1,"hasServiceTicket":1,"hasVIP":0,"hasWifi":0},"isETicket":true,"isTicket":true,"latitude":40.060417,"longitude":116.36504,"minPrice":2300,"movieCount":13,"ratingFinal":7.4851146,"showtimeCount":84},{"address":"北京市丰台区开阳路8号悦秀城6层","baiduLatitude":39.874413,"baiduLongitude":116.38121,"cinameName":"DMG国际影城北京悦秀店","cinemaId":8476,"couponActivityList":[{"desc":"温州银行信用卡10元购票（周三、六10点起）","id":232,"isSelected":false,"tag":"温州银行10元购票","url":"http://feature.mtime.cn/mobile/item/2016/bank/?3 "}],"districtID":1367,"feature":{"has3D":1,"hasFeature4D":0,"hasFeature4K":1,"hasFeatureDolby":1,"hasFeatureHuge":0,"hasIMAX":0,"hasLoveseat":0,"hasPark":1,"hasServiceTicket":1,"hasVIP":0,"hasWifi":1},"isETicket":true,"isTicket":true,"latitude":0,"longitude":0,"minPrice":3000,"movieCount":7,"ratingFinal":7.227102,"showtimeCount":64},{"address":"北京朝阳区姚家园路甲1号活力东方奥特莱斯购物中心4层","baiduLatitude":39.946922,"baiduLongitude":116.52846,"cinameName":"嘉华国际活力东方店","cinemaId":4025,"couponActivityList":[{"desc":"温州银行信用卡10元购票（周三、六10点起）","id":232,"isSelected":false,"tag":"温州银行10元购票","url":"http://feature.mtime.cn/mobile/item/2016/bank/?3 "}],"districtID":1362,"feature":{"has3D":1,"hasFeature4D":0,"hasFeature4K":0,"hasFeatureDolby":0,"hasFeatureHuge":0,"hasIMAX":0,"hasLoveseat":0,"hasPark":1,"hasServiceTicket":1,"hasVIP":0,"hasWifi":0},"isETicket":true,"isTicket":true,"latitude":39.94069,"longitude":116.52153,"minPrice":4300,"movieCount":17,"ratingFinal":8.626706,"showtimeCount":123},{"address":"北京市石景山区古城南路15号","baiduLatitude":39.917103,"baiduLongitude":116.1974,"cinameName":"古城电影院","cinemaId":1027,"couponActivityList":[{"desc":"温州银行信用卡10元购票（周三、六10点起）","id":232,"isSelected":false,"tag":"温州银行10元购票","url":"http://feature.mtime.cn/mobile/item/2016/bank/?3 "}],"districtID":1372,"feature":{"has3D":1,"hasFeature4D":0,"hasFeature4K":0,"hasFeatureDolby":0,"hasFeatureHuge":0,"hasIMAX":0,"hasLoveseat":0,"hasPark":1,"hasServiceTicket":1,"hasVIP":0,"hasWifi":1},"isETicket":true,"isTicket":true,"latitude":39.911186,"longitude":116.19123,"minPrice":3500,"movieCount":19,"ratingFinal":7.8683605,"showtimeCount":41},{"address":"北京市大兴区永兴路7号院1号楼3F-Z2","baiduLatitude":39.69135,"baiduLongitude":116.32484,"cinameName":"SFC上影影城（北京大兴龙湖店）","cinemaId":8703,"couponActivityList":[{"desc":"温州银行信用卡10元购票（周三、六10点起）","id":232,"isSelected":false,"tag":"温州银行10元购票","url":"http://feature.mtime.cn/mobile/item/2016/bank/?3 "}],"districtID":1364,"feature":{"has3D":1,"hasFeature4D":0,"hasFeature4K":0,"hasFeatureDolby":0,"hasFeatureHuge":0,"hasIMAX":1,"hasLoveseat":0,"hasPark":1,"hasServiceTicket":1,"hasVIP":0,"hasWifi":1},"isETicket":true,"isTicket":true,"latitude":0,"longitude":0,"minPrice":3400,"movieCount":8,"ratingFinal":7.840653,"showtimeCount":94},{"address":"北京市丰台区丰台北路18号恒泰广场E座6层","baiduLatitude":39.872635,"baiduLongitude":116.31356,"cinameName":"北京莱纳恒泰影城","cinemaId":9243,"couponActivityList":[{"desc":"温州银行信用卡10元购票（周三、六10点起）","id":232,"isSelected":false,"tag":"温州银行10元购票","url":"http://feature.mtime.cn/mobile/item/2016/bank/?3 "}],"districtID":1367,"feature":{"has3D":1,"hasFeature4D":0,"hasFeature4K":1,"hasFeatureDolby":1,"hasFeatureHuge":0,"hasIMAX":0,"hasLoveseat":1,"hasPark":1,"hasServiceTicket":1,"hasVIP":1,"hasWifi":1},"isETicket":true,"isTicket":true,"latitude":0,"longitude":0,"minPrice":3900,"movieCount":15,"ratingFinal":0,"showtimeCount":98},{"address":"北京市海淀区羊坊店路18号光耀东方广场4层（世纪坛南800米）","baiduLatitude":39.904945,"baiduLongitude":116.328705,"cinameName":"北京世茂国际影城","cinemaId":4193,"couponActivityList":[{"desc":"温州银行信用卡10元购票（周三、六10点起）","id":232,"isSelected":false,"tag":"温州银行10元购票","url":"http://feature.mtime.cn/mobile/item/2016/bank/?3 "}],"districtID":1368,"feature":{"has3D":1,"hasFeature4D":0,"hasFeature4K":0,"hasFeatureDolby":1,"hasFeatureHuge":0,"hasIMAX":0,"hasLoveseat":0,"hasPark":1,"hasServiceTicket":1,"hasVIP":0,"hasWifi":0},"isETicket":true,"isTicket":true,"latitude":39.899384,"longitude":116.32217,"minPrice":5000,"movieCount":17,"ratingFinal":7.7300816,"showtimeCount":100},{"address":"北京市通州区临河里33号楼华业东方玫瑰坊商业中心3层","baiduLatitude":39.887398,"baiduLongitude":116.68969,"cinameName":"北京耀莱成龙国际影城（临河里店）","cinemaId":8180,"couponActivityList":[{"desc":"温州银行信用卡10元购票（周三、六10点起）","id":232,"isSelected":false,"tag":"温州银行10元购票","url":"http://feature.mtime.cn/mobile/item/2016/bank/?3 "}],"districtID":3582,"feature":{"has3D":1,"hasFeature4D":0,"hasFeature4K":0,"hasFeatureDolby":0,"hasFeatureHuge":0,"hasIMAX":0,"hasLoveseat":0,"hasPark":0,"hasServiceTicket":1,"hasVIP":0,"hasWifi":1},"isETicket":true,"isTicket":true,"latitude":0,"longitude":0,"minPrice":4300,"movieCount":15,"ratingFinal":7.227102,"showtimeCount":101},{"address":"新顺南大街18号新世界百货七层","baiduLatitude":40.13312,"baiduLongitude":116.65791,"cinameName":"北京博纳顺景国际影城","cinemaId":2604,"couponActivityList":[{"desc":"温州银行信用卡10元购票（周三、六10点起）","id":232,"isSelected":false,"tag":"温州银行10元购票","url":"http://feature.mtime.cn/mobile/item/2016/bank/?3 "}],"districtID":1373,"feature":{"has3D":1,"hasFeature4D":1,"hasFeature4K":0,"hasFeatureDolby":0,"hasFeatureHuge":0,"hasIMAX":0,"hasLoveseat":0,"hasPark":1,"hasServiceTicket":1,"hasVIP":0,"hasWifi":1},"isETicket":true,"isTicket":true,"latitude":40.12621,"longitude":116.65221,"minPrice":4300,"movieCount":20,"ratingFinal":7.495914,"showtimeCount":118},{"address":"通州区西海子西塔胡同1号","baiduLatitude":39.91891,"baiduLongitude":116.671074,"cinameName":"通州区电影院","cinemaId":1400,"couponActivityList":[{"desc":"温州银行信用卡10元购票（周三、六10点起）","id":232,"isSelected":false,"tag":"温州银行10元购票","url":"http://feature.mtime.cn/mobile/item/2016/bank/?3 "}],"districtID":3582,"feature":{"has3D":1,"hasFeature4D":0,"hasFeature4K":0,"hasFeatureDolby":0,"hasFeatureHuge":0,"hasIMAX":0,"hasLoveseat":0,"hasPark":1,"hasServiceTicket":1,"hasVIP":1,"hasWifi":0},"isETicket":true,"isTicket":true,"latitude":39.912632,"longitude":116.66433,"minPrice":3300,"movieCount":20,"ratingFinal":7.0294967,"showtimeCount":57},{"address":"北京市朝阳区安慧里三区10号 （北辰购物中心对面）","baiduLatitude":39.997387,"baiduLongitude":116.41458,"cinameName":"北京剧院","cinemaId":1025,"couponActivityList":[{"desc":"温州银行信用卡10元购票（周三、六10点起）","id":232,"isSelected":false,"tag":"温州银行10元购票","url":"http://feature.mtime.cn/mobile/item/2016/bank/?3 "}],"districtID":1362,"feature":{"has3D":1,"hasFeature4D":0,"hasFeature4K":0,"hasFeatureDolby":0,"hasFeatureHuge":0,"hasIMAX":0,"hasLoveseat":0,"hasPark":1,"hasServiceTicket":0,"hasVIP":0,"hasWifi":0},"isETicket":true,"isTicket":true,"latitude":39.990406,"longitude":116.40881,"minPrice":4300,"movieCount":7,"ratingFinal":6.2756805,"showtimeCount":54},{"address":"北京市朝阳区望京合生麒麟社影院","baiduLatitude":40.003998,"baiduLongitude":116.48498,"cinameName":"大地影院望京新天地","cinemaId":4468,"couponActivityList":[{"desc":"温州银行信用卡10元购票（周三、六10点起）","id":232,"isSelected":false,"tag":"温州银行10元购票","url":"http://feature.mtime.cn/mobile/item/2016/bank/?3 "}],"districtID":1362,"feature":{"has3D":1,"hasFeature4D":0,"hasFeature4K":0,"hasFeatureDolby":0,"hasFeatureHuge":0,"hasIMAX":0,"hasLoveseat":0,"hasPark":1,"hasServiceTicket":0,"hasVIP":0,"hasWifi":0},"isETicket":true,"isTicket":true,"latitude":39.99717,"longitude":116.47745,"minPrice":2900,"movieCount":11,"ratingFinal":7.4255733,"showtimeCount":84},{"address":"北京市朝阳区东四环中路195号华腾新天地五层","baiduLatitude":39.890976,"baiduLongitude":116.49512,"cinameName":"北京东都影城","cinemaId":1009,"couponActivityList":[{"desc":"温州银行信用卡10元购票（周三、六10点起）","id":232,"isSelected":false,"tag":"温州银行10元购票","url":"http://feature.mtime.cn/mobile/item/2016/bank/?3 "}],"districtID":1362,"feature":{"has3D":1,"hasFeature4D":0,"hasFeature4K":0,"hasFeatureDolby":0,"hasFeatureHuge":0,"hasIMAX":0,"hasLoveseat":0,"hasPark":1,"hasServiceTicket":1,"hasVIP":1,"hasWifi":1},"isETicket":true,"isTicket":true,"latitude":39.885273,"longitude":116.48843,"minPrice":4500,"movieCount":32,"ratingFinal":6.6417346,"showtimeCount":206},{"address":"北京市丰台区万丰路68号和谐广场五层","baiduLatitude":39.88781,"baiduLongitude":116.304565,"cinameName":"北京恒业国际影城（六里桥IMAX店）","cinemaId":8792,"couponActivityList":[{"desc":"温州银行信用卡10元购票（周三、六10点起）","id":232,"isSelected":false,"tag":"温州银行10元购票","url":"http://feature.mtime.cn/mobile/item/2016/bank/?3 "}],"districtID":1367,"feature":{"has3D":1,"hasFeature4D":0,"hasFeature4K":0,"hasFeatureDolby":1,"hasFeatureHuge":0,"hasIMAX":1,"hasLoveseat":0,"hasPark":1,"hasServiceTicket":1,"hasVIP":1,"hasWifi":1},"isETicket":true,"isTicket":true,"latitude":0,"longitude":0,"minPrice":4300,"movieCount":7,"ratingFinal":6.5604353,"showtimeCount":30},{"address":"北京市石景山区阜石路300号三层309-1","baiduLatitude":39.929432,"baiduLongitude":116.17761,"cinameName":"保利万和苹果园店","cinemaId":6119,"couponActivityList":[{"desc":"温州银行信用卡10元购票（周三、六10点起）","id":232,"isSelected":false,"tag":"温州银行10元购票","url":"http://feature.mtime.cn/mobile/item/2016/bank/?3 "}],"districtID":1372,"feature":{"has3D":1,"hasFeature4D":0,"hasFeature4K":1,"hasFeatureDolby":0,"hasFeatureHuge":0,"hasIMAX":0,"hasLoveseat":0,"hasPark":0,"hasServiceTicket":1,"hasVIP":0,"hasWifi":0},"isETicket":true,"isTicket":true,"latitude":39.923557,"longitude":116.17192,"minPrice":4300,"movieCount":18,"ratingFinal":7.9787536,"showtimeCount":70},{"address":"北京市东城区王府井大街301号新燕莎金街购物广场地下一层西侧（地铁1号线王府井站出C2口向北步行200米路西）","baiduLatitude":39.9162,"baiduLongitude":116.41706,"cinameName":"耀莱成龙王府井店","cinemaId":6385,"couponActivityList":[{"desc":"温州银行信用卡10元购票（周三、六10点起）","id":232,"isSelected":false,"tag":"温州银行10元购票","url":"http://feature.mtime.cn/mobile/item/2016/bank/?3 "}],"districtID":1365,"feature":{"has3D":1,"hasFeature4D":0,"hasFeature4K":0,"hasFeatureDolby":0,"hasFeatureHuge":0,"hasIMAX":0,"hasLoveseat":0,"hasPark":1,"hasServiceTicket":1,"hasVIP":1,"hasWifi":0},"isETicket":true,"isTicket":true,"latitude":39.90981,"longitude":116.41118,"minPrice":4400,"movieCount":4,"ratingFinal":8.210163,"showtimeCount":9},{"address":"朝阳区立清路明天第一城7号院蓝黛时空汇内","baiduLatitude":40.054047,"baiduLongitude":116.412895,"cinameName":"鲁信影城北京立水桥店","cinemaId":3289,"couponActivityList":[{"desc":"温州银行信用卡10元购票（周三、六10点起）","id":232,"isSelected":false,"tag":"温州银行10元购票","url":"http://feature.mtime.cn/mobile/item/2016/bank/?3 "}],"districtID":1362,"feature":{"has3D":1,"hasFeature4D":0,"hasFeature4K":0,"hasFeatureDolby":0,"hasFeatureHuge":0,"hasIMAX":0,"hasLoveseat":0,"hasPark":0,"hasServiceTicket":0,"hasVIP":0,"hasWifi":0},"isETicket":true,"isTicket":true,"latitude":40.04772,"longitude":116.406525,"minPrice":2890,"movieCount":4,"ratingFinal":7.1950545,"showtimeCount":28},{"address":"北京市顺义区临空经济核心区安泰大街9号院7号楼二层","baiduLatitude":40.096535,"baiduLongitude":116.54327,"cinameName":"橙天嘉禾影城北京祥云店","cinemaId":6475,"couponActivityList":[{"desc":"温州银行信用卡10元购票（周三、六10点起）","id":232,"isSelected":false,"tag":"温州银行10元购票","url":"http://feature.mtime.cn/mobile/item/2016/bank/?3 "}],"districtID":1373,"feature":{"has3D":1,"hasFeature4D":0,"hasFeature4K":0,"hasFeatureDolby":0,"hasFeatureHuge":0,"hasIMAX":0,"hasLoveseat":0,"hasPark":0,"hasServiceTicket":0,"hasVIP":1,"hasWifi":0},"isETicket":true,"isTicket":true,"latitude":40.089737,"longitude":116.53644,"minPrice":6000,"movieCount":11,"ratingFinal":6.5486646,"showtimeCount":95},{"address":"北京市昌平区鼓楼南街佳莲时代广场四层","baiduLatitude":40.229332,"baiduLongitude":116.24031,"cinameName":"昌平保利影剧院","cinemaId":2687,"couponActivityList":[{"desc":"温州银行信用卡10元购票（周三、六10点起）","id":232,"isSelected":false,"tag":"温州银行10元购票","url":"http://feature.mtime.cn/mobile/item/2016/bank/?3 "}],"districtID":1361,"feature":{"has3D":1,"hasFeature4D":0,"hasFeature4K":0,"hasFeatureDolby":0,"hasFeatureHuge":0,"hasIMAX":0,"hasLoveseat":0,"hasPark":1,"hasServiceTicket":0,"hasVIP":0,"hasWifi":1},"isETicket":true,"isTicket":true,"latitude":40.223602,"longitude":116.23356,"minPrice":3000,"movieCount":12,"ratingFinal":8.292991,"showtimeCount":65},{"address":"北京大兴区黄村西大街15号","baiduLatitude":39.737595,"baiduLongitude":116.34436,"cinameName":"北京市大兴剧院","cinemaId":1399,"couponActivityList":[{"desc":"温州银行信用卡10元购票（周三、六10点起）","id":232,"isSelected":false,"tag":"温州银行10元购票","url":"http://feature.mtime.cn/mobile/item/2016/bank/?3 "}],"districtID":1364,"feature":{"has3D":1,"hasFeature4D":0,"hasFeature4K":0,"hasFeatureDolby":0,"hasFeatureHuge":0,"hasIMAX":0,"hasLoveseat":0,"hasPark":1,"hasServiceTicket":0,"hasVIP":0,"hasWifi":0},"isETicket":true,"isTicket":true,"latitude":39.732372,"longitude":116.337944,"minPrice":3300,"movieCount":5,"ratingFinal":6.4308605,"showtimeCount":13},{"address":"朝阳区京顺路111号比如世界购物中心1层","baiduLatitude":39.973686,"baiduLongitude":116.4681,"cinameName":"北京完美世界影城比如店（原17.5影城）","cinemaId":2697,"couponActivityList":[{"desc":"温州银行信用卡10元购票（周三、六10点起）","id":232,"isSelected":false,"tag":"温州银行10元购票","url":"http://feature.mtime.cn/mobile/item/2016/bank/?3 "}],"districtID":1362,"feature":{"has3D":1,"hasFeature4D":0,"hasFeature4K":0,"hasFeatureDolby":0,"hasFeatureHuge":0,"hasIMAX":0,"hasLoveseat":0,"hasPark":1,"hasServiceTicket":0,"hasVIP":0,"hasWifi":0},"isETicket":true,"isTicket":true,"latitude":39.966858,"longitude":116.46276,"minPrice":4700,"movieCount":6,"ratingFinal":7.048751,"showtimeCount":25},{"address":"朝阳区管庄京通苑30号L307（杨闸环岛PLUS华润三层）","baiduLatitude":39.918255,"baiduLongitude":116.60266,"cinameName":"北京完美世界影城管庄店（原17.5影城）","cinemaId":3400,"couponActivityList":[{"desc":"温州银行信用卡10元购票（周三、六10点起）","id":232,"isSelected":false,"tag":"温州银行10元购票","url":"http://feature.mtime.cn/mobile/item/2016/bank/?3 "}],"districtID":1362,"feature":{"has3D":1,"hasFeature4D":0,"hasFeature4K":0,"hasFeatureDolby":0,"hasFeatureHuge":0,"hasIMAX":0,"hasLoveseat":0,"hasPark":1,"hasServiceTicket":1,"hasVIP":0,"hasWifi":1},"isETicket":true,"isTicket":true,"latitude":39.911957,"longitude":116.59712,"minPrice":4700,"movieCount":18,"ratingFinal":5.28305,"showtimeCount":90},{"address":"海淀区西翠路5号苏宁电器地下一层","baiduLatitude":39.906837,"baiduLongitude":116.288765,"cinameName":"北京完美世界影城今日店（原17.5影城）","cinemaId":2354,"couponActivityList":[{"desc":"温州银行信用卡10元购票（周三、六10点起）","id":232,"isSelected":false,"tag":"温州银行10元购票","url":"http://feature.mtime.cn/mobile/item/2016/bank/?3 "}],"districtID":1368,"feature":{"has3D":1,"hasFeature4D":0,"hasFeature4K":0,"hasFeatureDolby":0,"hasFeatureHuge":0,"hasIMAX":0,"hasLoveseat":0,"hasPark":1,"hasServiceTicket":0,"hasVIP":1,"hasWifi":0},"isETicket":true,"isTicket":true,"latitude":39.900585,"longitude":116.28234,"minPrice":5200,"movieCount":8,"ratingFinal":7.013904,"showtimeCount":62},{"address":"北京市海淀区西四环北路117号金四季购物中心中段三层","baiduLatitude":39.94985,"baiduLongitude":116.27794,"cinameName":"北京万画四季青影城","cinemaId":6947,"couponActivityList":[{"desc":"温州银行信用卡10元购票（周三、六10点起）","id":232,"isSelected":false,"tag":"温州银行10元购票","url":"http://feature.mtime.cn/mobile/item/2016/bank/?3 "}],"districtID":1368,"feature":{"has3D":1,"hasFeature4D":0,"hasFeature4K":0,"hasFeatureDolby":0,"hasFeatureHuge":0,"hasIMAX":0,"hasLoveseat":0,"hasPark":1,"hasServiceTicket":0,"hasVIP":1,"hasWifi":0},"isETicket":true,"isTicket":true,"latitude":39.94473,"longitude":116.2709,"minPrice":2400,"movieCount":19,"ratingFinal":7.4203267,"showtimeCount":88},{"address":"北京市西城区西四羊肉胡同三十号","baiduLatitude":39.928635,"baiduLongitude":116.37807,"cinameName":"地质礼堂","cinemaId":1010,"couponActivityList":[{"desc":"温州银行信用卡10元购票（周三、六10点起）","id":232,"isSelected":false,"tag":"温州银行10元购票","url":"http://feature.mtime.cn/mobile/item/2016/bank/?3 "}],"districtID":1375,"feature":{"has3D":1,"hasFeature4D":0,"hasFeature4K":0,"hasFeatureDolby":0,"hasFeatureHuge":0,"hasIMAX":0,"hasLoveseat":0,"hasPark":1,"hasServiceTicket":1,"hasVIP":0,"hasWifi":0},"isETicket":true,"isTicket":true,"latitude":39.922886,"longitude":116.37126,"minPrice":4300,"movieCount":11,"ratingFinal":6.427949,"showtimeCount":31},{"address":"大兴区旧宫镇小红门路39号永辉超市东侧","baiduLatitude":39.81957,"baiduLongitude":116.46137,"cinameName":"嘉美国际影城","cinemaId":3531,"couponActivityList":[{"desc":"温州银行信用卡10元购票（周三、六10点起）","id":232,"isSelected":false,"tag":"温州银行10元购票","url":"http://feature.mtime.cn/mobile/item/2016/bank/?3 "}],"districtID":1364,"feature":{"has3D":1,"hasFeature4D":0,"hasFeature4K":0,"hasFeatureDolby":0,"hasFeatureHuge":0,"hasIMAX":0,"hasLoveseat":0,"hasPark":1,"hasServiceTicket":1,"hasVIP":0,"hasWifi":0},"isETicket":true,"isTicket":true,"latitude":39.81471,"longitude":116.45479,"minPrice":3500,"movieCount":5,"ratingFinal":7.9171896,"showtimeCount":32},{"address":"北京市大兴区欣旺北大街8号鸿坤广场6层","baiduLatitude":39.79635,"baiduLongitude":116.34713,"cinameName":"北京耀莱成龙国际影城（西红门店）","cinemaId":6459,"couponActivityList":[{"desc":"温州银行信用卡10元购票（周三、六10点起）","id":232,"isSelected":false,"tag":"温州银行10元购票","url":"http://feature.mtime.cn/mobile/item/2016/bank/?3 "}],"districtID":1364,"feature":{"has3D":1,"hasFeature4D":0,"hasFeature4K":0,"hasFeatureDolby":0,"hasFeatureHuge":1,"hasIMAX":0,"hasLoveseat":0,"hasPark":1,"hasServiceTicket":1,"hasVIP":1,"hasWifi":1},"isETicket":true,"isTicket":true,"latitude":0,"longitude":0,"minPrice":4300,"movieCount":22,"ratingFinal":9.649508,"showtimeCount":148},{"address":"北京市宣武区大栅栏街36号","baiduLatitude":39.902,"baiduLongitude":116.401474,"cinameName":"大观楼影城","cinemaId":1008,"couponActivityList":[{"desc":"温州银行信用卡10元购票（周三、六10点起）","id":232,"isSelected":false,"tag":"温州银行10元购票","url":"http://feature.mtime.cn/mobile/item/2016/bank/?3 "}],"districtID":1376,"feature":{"has3D":1,"hasFeature4D":0,"hasFeature4K":0,"hasFeatureDolby":0,"hasFeatureHuge":0,"hasIMAX":0,"hasLoveseat":0,"hasPark":1,"hasServiceTicket":0,"hasVIP":0,"hasWifi":0},"isETicket":true,"isTicket":true,"latitude":39.89566,"longitude":116.39508,"minPrice":3500,"movieCount":6,"ratingFinal":7.4644046,"showtimeCount":44},{"address":"北京市门头沟区双峪路35号B座6层","baiduLatitude":39.940857,"baiduLongitude":116.119736,"cinameName":"北京熙旺国际影城","cinemaId":6265,"couponActivityList":[{"desc":"温州银行信用卡10元购票（周三、六10点起）","id":232,"isSelected":false,"tag":"温州银行10元购票","url":"http://feature.mtime.cn/mobile/item/2016/bank/?3 "}],"districtID":1369,"feature":{"has3D":1,"hasFeature4D":0,"hasFeature4K":0,"hasFeatureDolby":0,"hasFeatureHuge":0,"hasIMAX":0,"hasLoveseat":0,"hasPark":1,"hasServiceTicket":1,"hasVIP":0,"hasWifi":1},"isETicket":true,"isTicket":true,"latitude":39.942417,"longitude":116.12609,"minPrice":5400,"movieCount":15,"ratingFinal":8.402391,"showtimeCount":140},{"address":"北京市顺义区仁和镇新顺南大街11号隆华购物中心6F","baiduLatitude":40.13227,"baiduLongitude":116.65694,"cinameName":"大地影院-北京顺义","cinemaId":6611,"couponActivityList":[{"desc":"温州银行信用卡10元购票（周三、六10点起）","id":232,"isSelected":false,"tag":"温州银行10元购票","url":"http://feature.mtime.cn/mobile/item/2016/bank/?3 "}],"districtID":1373,"feature":{"has3D":1,"hasFeature4D":0,"hasFeature4K":1,"hasFeatureDolby":1,"hasFeatureHuge":1,"hasIMAX":0,"hasLoveseat":0,"hasPark":1,"hasServiceTicket":1,"hasVIP":0,"hasWifi":1},"isETicket":true,"isTicket":true,"latitude":40.127262,"longitude":116.648926,"minPrice":4400,"movieCount":14,"ratingFinal":8.113551,"showtimeCount":116},{"address":"北京市海淀区杏石口路中间艺术园区内","baiduLatitude":39.959923,"baiduLongitude":116.23777,"cinameName":"中间影院","cinemaId":5747,"couponActivityList":[{"desc":"温州银行信用卡10元购票（周三、六10点起）","id":232,"isSelected":false,"tag":"温州银行10元购票","url":"http://feature.mtime.cn/mobile/item/2016/bank/?3 "}],"districtID":1368,"feature":{"has3D":1,"hasFeature4D":0,"hasFeature4K":0,"hasFeatureDolby":0,"hasFeatureHuge":0,"hasIMAX":0,"hasLoveseat":0,"hasPark":1,"hasServiceTicket":0,"hasVIP":0,"hasWifi":0},"isETicket":true,"isTicket":true,"latitude":39.953785,"longitude":116.23094,"minPrice":3800,"movieCount":10,"ratingFinal":7.981253,"showtimeCount":25},{"address":"北京市门头沟区永定镇冯村华润Plus365购物中心2层","baiduLatitude":39.917812,"baiduLongitude":116.11826,"cinameName":"幸福蓝海门头沟店","cinemaId":6199,"couponActivityList":[{"desc":"温州银行信用卡10元购票（周三、六10点起）","id":232,"isSelected":false,"tag":"温州银行10元购票","url":"http://feature.mtime.cn/mobile/item/2016/bank/?3 "}],"districtID":1369,"feature":{"has3D":1,"hasFeature4D":0,"hasFeature4K":0,"hasFeatureDolby":0,"hasFeatureHuge":0,"hasIMAX":0,"hasLoveseat":0,"hasPark":1,"hasServiceTicket":1,"hasVIP":0,"hasWifi":1},"isETicket":true,"isTicket":true,"latitude":39.90667,"longitude":116.11062,"minPrice":5400,"movieCount":10,"ratingFinal":8.167582,"showtimeCount":69},{"address":"北京市朝阳区垡头翠城永辉超市地下一层","baiduLatitude":39.863174,"baiduLongitude":116.51143,"cinameName":"大地影院垡头永辉","cinemaId":6451,"couponActivityList":[{"desc":"温州银行信用卡10元购票（周三、六10点起）","id":232,"isSelected":false,"tag":"温州银行10元购票","url":"http://feature.mtime.cn/mobile/item/2016/bank/?3 "}],"districtID":1362,"feature":{"has3D":1,"hasFeature4D":0,"hasFeature4K":0,"hasFeatureDolby":0,"hasFeatureHuge":0,"hasIMAX":0,"hasLoveseat":0,"hasPark":1,"hasServiceTicket":0,"hasVIP":0,"hasWifi":0},"isETicket":true,"isTicket":true,"latitude":39.856846,"longitude":116.50536,"minPrice":3400,"movieCount":11,"ratingFinal":8.736261,"showtimeCount":73},{"address":"北京市房山区广阳新路9号院1号楼3层中粮万科半岛广场三层","baiduLatitude":39.759155,"baiduLongitude":116.21939,"cinameName":"幸福蓝海国际影城（北京房山店）","cinemaId":6956,"couponActivityList":[{"desc":"温州银行信用卡10元购票（周三、六10点起）","id":232,"isSelected":false,"tag":"温州银行10元购票","url":"http://feature.mtime.cn/mobile/item/2016/bank/?3 "}],"districtID":1366,"feature":{"has3D":1,"hasFeature4D":0,"hasFeature4K":1,"hasFeatureDolby":1,"hasFeatureHuge":0,"hasIMAX":0,"hasLoveseat":0,"hasPark":1,"hasServiceTicket":1,"hasVIP":1,"hasWifi":0},"isETicket":true,"isTicket":true,"latitude":39.75376,"longitude":116.2124,"minPrice":4000,"movieCount":12,"ratingFinal":7.954472,"showtimeCount":138},{"address":"北京市朝阳区来广营西路诚盈中心B1层商业街","baiduLatitude":40.02651,"baiduLongitude":116.472626,"cinameName":"奥兰环球影城（望京店）","cinemaId":9439,"couponActivityList":[{"desc":"温州银行信用卡10元购票（周三、六10点起）","id":232,"isSelected":false,"tag":"温州银行10元购票","url":"http://feature.mtime.cn/mobile/item/2016/bank/?3 "}],"districtID":1362,"feature":{"has3D":1,"hasFeature4D":0,"hasFeature4K":0,"hasFeatureDolby":0,"hasFeatureHuge":0,"hasIMAX":0,"hasLoveseat":0,"hasPark":1,"hasServiceTicket":1,"hasVIP":1,"hasWifi":1},"isETicket":true,"isTicket":true,"latitude":0,"longitude":0,"minPrice":3390,"movieCount":142,"ratingFinal":0,"showtimeCount":756},{"address":"北京海淀区悦秀路99号二层大地影院","baiduLatitude":40.05299,"baiduLongitude":116.344505,"cinameName":"大地影院西三旗物美","cinemaId":4317,"couponActivityList":[{"desc":"温州银行信用卡10元购票（周三、六10点起）","id":232,"isSelected":false,"tag":"温州银行10元购票","url":"http://feature.mtime.cn/mobile/item/2016/bank/?3 "}],"districtID":1368,"feature":{"has3D":1,"hasFeature4D":0,"hasFeature4K":0,"hasFeatureDolby":0,"hasFeatureHuge":0,"hasIMAX":0,"hasLoveseat":0,"hasPark":1,"hasServiceTicket":0,"hasVIP":0,"hasWifi":1},"isETicket":true,"isTicket":true,"latitude":40.05296,"longitude":116.337585,"minPrice":3900,"movieCount":10,"ratingFinal":8.042582,"showtimeCount":50},{"address":"北京市朝阳区工体北路21号永利国际购物中心B1","baiduLatitude":39.940914,"baiduLongitude":116.45159,"cinameName":"北京米高梅国际影城（工体店）","cinemaId":9342,"couponActivityList":[{"desc":"温州银行信用卡10元购票（周三、六10点起）","id":232,"isSelected":false,"tag":"温州银行10元购票","url":"http://feature.mtime.cn/mobile/item/2016/bank/?3 "}],"districtID":1362,"feature":{"has3D":1,"hasFeature4D":0,"hasFeature4K":0,"hasFeatureDolby":0,"hasFeatureHuge":0,"hasIMAX":0,"hasLoveseat":0,"hasPark":0,"hasServiceTicket":0,"hasVIP":0,"hasWifi":1},"isETicket":true,"isTicket":true,"latitude":0,"longitude":0,"minPrice":2800,"movieCount":9,"ratingFinal":8.840653,"showtimeCount":66},{"address":"北京市海淀区远大路1号B座5层魔影国际影城","baiduLatitude":39.9668,"baiduLongitude":116.29435,"cinameName":"魔影国际影城（金源店）","cinemaId":9675,"couponActivityList":[{"desc":"温州银行信用卡10元购票（周三、六10点起）","id":232,"isSelected":false,"tag":"温州银行10元购票","url":"http://feature.mtime.cn/mobile/item/2016/bank/?3 "}],"districtID":1368,"feature":{"has3D":1,"hasFeature4D":0,"hasFeature4K":0,"hasFeatureDolby":1,"hasFeatureHuge":0,"hasIMAX":0,"hasLoveseat":1,"hasPark":1,"hasServiceTicket":0,"hasVIP":1,"hasWifi":1},"isETicket":true,"isTicket":true,"latitude":0,"longitude":0,"minPrice":2800,"movieCount":23,"ratingFinal":4.840653,"showtimeCount":211},{"address":"北京市西城区前门煤市街北京坊C1区","baiduLatitude":39.902885,"baiduLongitude":116.40085,"cinameName":"保利国际影城天安门店","cinemaId":9389,"couponActivityList":[{"desc":"温州银行信用卡10元购票（周三、六10点起）","id":232,"isSelected":false,"tag":"温州银行10元购票","url":"http://feature.mtime.cn/mobile/item/2016/bank/?3 "}],"districtID":1362,"feature":{"has3D":1,"hasFeature4D":1,"hasFeature4K":0,"hasFeatureDolby":1,"hasFeatureHuge":0,"hasIMAX":0,"hasLoveseat":0,"hasPark":1,"hasServiceTicket":1,"hasVIP":0,"hasWifi":1},"isETicket":true,"isTicket":true,"latitude":0,"longitude":0,"minPrice":3500,"movieCount":27,"ratingFinal":0,"showtimeCount":171},{"address":"北京市丰台区丰科路6号万达广场6层","baiduLatitude":39.813484,"baiduLongitude":116.30671,"cinameName":"北京丰台万达广场店","cinemaId":1039,"couponActivityList":[{"desc":"温州银行信用卡10元购票（周三、六10点起）","id":232,"isSelected":false,"tag":"温州银行10元购票","url":"http://feature.mtime.cn/mobile/item/2016/bank/?3 "}],"districtID":1367,"feature":{"has3D":1,"hasFeature4D":0,"hasFeature4K":0,"hasFeatureDolby":0,"hasFeatureHuge":0,"hasIMAX":1,"hasLoveseat":0,"hasPark":1,"hasServiceTicket":1,"hasVIP":1,"hasWifi":1},"isETicket":true,"isTicket":true,"latitude":0,"longitude":0,"minPrice":2800,"movieCount":12,"ratingFinal":0,"showtimeCount":146},{"address":"北京市朝阳区工体北路13号世茂工三MALL／3F艾米1895电影街","baiduLatitude":39.941196,"baiduLongitude":116.456,"cinameName":"艾米1895电影街（北京世茂店）","cinemaId":8347,"couponActivityList":[{"desc":"温州银行信用卡10元购票（周三、六10点起）","id":232,"isSelected":false,"tag":"温州银行10元购票","url":"http://feature.mtime.cn/mobile/item/2016/bank/?3 "}],"districtID":1362,"feature":{"has3D":1,"hasFeature4D":0,"hasFeature4K":0,"hasFeatureDolby":0,"hasFeatureHuge":0,"hasIMAX":0,"hasLoveseat":0,"hasPark":0,"hasServiceTicket":0,"hasVIP":0,"hasWifi":0},"isETicket":true,"isTicket":true,"latitude":0,"longitude":0,"minPrice":9000,"movieCount":2,"ratingFinal":0,"showtimeCount":17},{"address":"北京市丰台区槐房南路6号院万达广场四层万达影城","baiduLatitude":39.820683,"baiduLongitude":116.37685,"cinameName":"北京槐房万达广场店","cinemaId":9124,"couponActivityList":[{"desc":"温州银行信用卡10元购票（周三、六10点起）","id":232,"isSelected":false,"tag":"温州银行10元购票","url":"http://feature.mtime.cn/mobile/item/2016/bank/?3 "}],"districtID":1367,"feature":{"has3D":1,"hasFeature4D":1,"hasFeature4K":1,"hasFeatureDolby":0,"hasFeatureHuge":0,"hasIMAX":1,"hasLoveseat":0,"hasPark":1,"hasServiceTicket":1,"hasVIP":1,"hasWifi":0},"isETicket":true,"isTicket":true,"latitude":0,"longitude":0,"minPrice":2800,"movieCount":9,"ratingFinal":0,"showtimeCount":129},{"address":"光彩路京港城生活广场6楼(京深海鲜市场对面)","baiduLatitude":39.848503,"baiduLongitude":116.424484,"cinameName":"泛影城北京京港城店","cinemaId":9666,"couponActivityList":[{"desc":"温州银行信用卡10元购票（周三、六10点起）","id":232,"isSelected":false,"tag":"温州银行10元购票","url":"http://feature.mtime.cn/mobile/item/2016/bank/?3 "}],"districtID":1367,"feature":{"has3D":0,"hasFeature4D":0,"hasFeature4K":0,"hasFeatureDolby":0,"hasFeatureHuge":0,"hasIMAX":0,"hasLoveseat":1,"hasPark":1,"hasServiceTicket":1,"hasVIP":0,"hasWifi":0},"isETicket":true,"isTicket":true,"latitude":0,"longitude":0,"minPrice":3300,"movieCount":26,"ratingFinal":0,"showtimeCount":189},{"address":"北京市朝阳区光华路9号世贸天阶南街-1商业内B110","baiduLatitude":39.921795,"baiduLongitude":116.46007,"cinameName":"中影星美国际影城（世贸天阶店）","cinemaId":9352,"couponActivityList":[{"desc":"温州银行信用卡10元购票（周三、六10点起）","id":232,"isSelected":false,"tag":"温州银行10元购票","url":"http://feature.mtime.cn/mobile/item/2016/bank/?3 "}],"districtID":1362,"feature":{"has3D":1,"hasFeature4D":1,"hasFeature4K":0,"hasFeatureDolby":1,"hasFeatureHuge":0,"hasIMAX":0,"hasLoveseat":1,"hasPark":0,"hasServiceTicket":0,"hasVIP":1,"hasWifi":1},"isETicket":true,"isTicket":true,"latitude":0,"longitude":0,"minPrice":3800,"movieCount":27,"ratingFinal":0,"showtimeCount":178},{"address":"北京市丰台区榴乡路88号院石榴中心B1层","baiduLatitude":39.847504,"baiduLongitude":116.42978,"cinameName":"中影国际影城北京石榴中心店","cinemaId":9558,"couponActivityList":[{"desc":"温州银行信用卡10元购票（周三、六10点起）","id":232,"isSelected":false,"tag":"温州银行10元购票","url":"http://feature.mtime.cn/mobile/item/2016/bank/?3 "}],"districtID":1367,"feature":{"has3D":1,"hasFeature4D":0,"hasFeature4K":0,"hasFeatureDolby":0,"hasFeatureHuge":0,"hasIMAX":0,"hasLoveseat":0,"hasPark":1,"hasServiceTicket":0,"hasVIP":0,"hasWifi":1},"isETicket":true,"isTicket":true,"latitude":0,"longitude":0,"minPrice":3200,"movieCount":13,"ratingFinal":0,"showtimeCount":130},{"address":"北京市海淀区温泉镇北部文化中心D座4层","baiduLatitude":40.054947,"baiduLongitude":116.18717,"cinameName":"北京耀莱成龙国际影城（温泉镇店）","cinemaId":8984,"couponActivityList":[{"desc":"温州银行信用卡10元购票（周三、六10点起）","id":232,"isSelected":false,"tag":"温州银行10元购票","url":"http://feature.mtime.cn/mobile/item/2016/bank/?3 "}],"districtID":1368,"feature":{"has3D":1,"hasFeature4D":0,"hasFeature4K":0,"hasFeatureDolby":1,"hasFeatureHuge":0,"hasIMAX":0,"hasLoveseat":0,"hasPark":1,"hasServiceTicket":1,"hasVIP":1,"hasWifi":0},"isETicket":true,"isTicket":true,"latitude":0,"longitude":0,"minPrice":4300,"movieCount":11,"ratingFinal":0,"showtimeCount":70},{"address":"房山区良乡拱辰南大街1号瑞城广场7层","baiduLatitude":39.736847,"baiduLongitude":116.14794,"cinameName":"DMG国际影城北京良乡店","cinemaId":8477,"couponActivityList":[{"desc":"温州银行信用卡10元购票（周三、六10点起）","id":232,"isSelected":false,"tag":"温州银行10元购票","url":"http://feature.mtime.cn/mobile/item/2016/bank/?3 "}],"districtID":1366,"feature":{"has3D":1,"hasFeature4D":0,"hasFeature4K":0,"hasFeatureDolby":0,"hasFeatureHuge":0,"hasIMAX":0,"hasLoveseat":0,"hasPark":0,"hasServiceTicket":1,"hasVIP":1,"hasWifi":1},"isETicket":true,"isTicket":true,"latitude":0,"longitude":0,"minPrice":3700,"movieCount":22,"ratingFinal":0,"showtimeCount":161},{"address":"北京经济技术开发区荣华南路大族广场南门T4楼3层CGV影城","baiduLatitude":39.79703,"baiduLongitude":116.51932,"cinameName":"CGV星聚汇影城（亦庄店）","cinemaId":8878,"couponActivityList":[{"desc":"温州银行信用卡10元购票（周三、六10点起）","id":232,"isSelected":false,"tag":"温州银行10元购票","url":"http://feature.mtime.cn/mobile/item/2016/bank/?3 "}],"districtID":1364,"feature":{"has3D":1,"hasFeature4D":0,"hasFeature4K":1,"hasFeatureDolby":0,"hasFeatureHuge":0,"hasIMAX":0,"hasLoveseat":1,"hasPark":1,"hasServiceTicket":1,"hasVIP":0,"hasWifi":1},"isETicket":true,"isTicket":true,"latitude":0,"longitude":0,"minPrice":2500,"movieCount":14,"ratingFinal":8.840653,"showtimeCount":70},{"address":"北京市海淀区田村路43号京粮广场万画影城","baiduLatitude":39.9365,"baiduLongitude":116.26055,"cinameName":"北京万画影城-田村店","cinemaId":9391,"couponActivityList":[{"desc":"温州银行信用卡10元购票（周三、六10点起）","id":232,"isSelected":false,"tag":"温州银行10元购票","url":"http://feature.mtime.cn/mobile/item/2016/bank/?3 "}],"districtID":1368,"feature":{"has3D":1,"hasFeature4D":0,"hasFeature4K":0,"hasFeatureDolby":0,"hasFeatureHuge":0,"hasIMAX":0,"hasLoveseat":1,"hasPark":1,"hasServiceTicket":1,"hasVIP":0,"hasWifi":1},"isETicket":true,"isTicket":true,"latitude":0,"longitude":0,"minPrice":2900,"movieCount":16,"ratingFinal":0,"showtimeCount":66},{"address":"北京市朝阳区神路街39号B座-1层","baiduLatitude":39.92592,"baiduLongitude":116.44998,"cinameName":"米瑞酷影城（日坛店）","cinemaId":8908,"couponActivityList":[{"desc":"温州银行信用卡10元购票（周三、六10点起）","id":232,"isSelected":false,"tag":"温州银行10元购票","url":"http://feature.mtime.cn/mobile/item/2016/bank/?3 "}],"districtID":1362,"feature":{"has3D":1,"hasFeature4D":0,"hasFeature4K":0,"hasFeatureDolby":0,"hasFeatureHuge":0,"hasIMAX":0,"hasLoveseat":0,"hasPark":1,"hasServiceTicket":1,"hasVIP":0,"hasWifi":1},"isETicket":true,"isTicket":true,"latitude":0,"longitude":0,"minPrice":3300,"movieCount":13,"ratingFinal":8.840653,"showtimeCount":79},{"address":"北京顺义后沙峪镇双裕街45号九重汇商夏8层","baiduLatitude":40.11094,"baiduLongitude":116.54895,"cinameName":"华彩恐龙主题影城","cinemaId":9190,"couponActivityList":[{"desc":"温州银行信用卡10元购票（周三、六10点起）","id":232,"isSelected":false,"tag":"温州银行10元购票","url":"http://feature.mtime.cn/mobile/item/2016/bank/?3 "}],"districtID":1373,"feature":{"has3D":1,"hasFeature4D":1,"hasFeature4K":0,"hasFeatureDolby":0,"hasFeatureHuge":0,"hasIMAX":0,"hasLoveseat":0,"hasPark":1,"hasServiceTicket":1,"hasVIP":0,"hasWifi":1},"isETicket":true,"isTicket":true,"latitude":0,"longitude":0,"minPrice":3800,"movieCount":14,"ratingFinal":0,"showtimeCount":118},{"address":"北京市密云区鼓楼南大街10号瑞嘉商场4层","baiduLatitude":40.380947,"baiduLongitude":116.85249,"cinameName":"米瑞酷影城（密云店）","cinemaId":9323,"couponActivityList":[{"desc":"温州银行信用卡10元购票（周三、六10点起）","id":232,"isSelected":false,"tag":"温州银行10元购票","url":"http://feature.mtime.cn/mobile/item/2016/bank/?3 "}],"districtID":1370,"feature":{"has3D":1,"hasFeature4D":0,"hasFeature4K":0,"hasFeatureDolby":0,"hasFeatureHuge":0,"hasIMAX":0,"hasLoveseat":0,"hasPark":1,"hasServiceTicket":1,"hasVIP":0,"hasWifi":1},"isETicket":true,"isTicket":true,"latitude":0,"longitude":0,"minPrice":4300,"movieCount":11,"ratingFinal":0,"showtimeCount":73},{"address":"北京市通州区台湖镇定海园二里15号楼新城商厦4004号","baiduLatitude":39.80473,"baiduLongitude":116.57224,"cinameName":"华夏天合国际影城","cinemaId":9440,"couponActivityList":[{"desc":"温州银行信用卡10元购票（周三、六10点起）","id":232,"isSelected":false,"tag":"温州银行10元购票","url":"http://feature.mtime.cn/mobile/item/2016/bank/?3 "}],"districtID":3582,"feature":{"has3D":1,"hasFeature4D":0,"hasFeature4K":0,"hasFeatureDolby":0,"hasFeatureHuge":0,"hasIMAX":0,"hasLoveseat":0,"hasPark":1,"hasServiceTicket":1,"hasVIP":0,"hasWifi":1},"isETicket":true,"isTicket":true,"latitude":0,"longitude":0,"minPrice":2800,"movieCount":31,"ratingFinal":0,"showtimeCount":187},{"address":"朝阳区亮马桥路21号枫花园汽车影院（高清数字3D巨幕露天电影院）","baiduLatitude":39.958946,"baiduLongitude":116.4913,"cinameName":"枫花园汽车电影院","cinemaId":1019,"couponActivityList":[{"desc":"温州银行信用卡10元购票（周三、六10点起）","id":232,"isSelected":false,"tag":"温州银行10元购票","url":"http://feature.mtime.cn/mobile/item/2016/bank/?3 "}],"districtID":1362,"feature":{"has3D":1,"hasFeature4D":0,"hasFeature4K":0,"hasFeatureDolby":0,"hasFeatureHuge":0,"hasIMAX":0,"hasLoveseat":0,"hasPark":1,"hasServiceTicket":0,"hasVIP":0,"hasWifi":1},"isETicket":true,"isTicket":false,"latitude":39.953045,"longitude":116.48477,"minPrice":0,"movieCount":8,"ratingFinal":6.9297366,"showtimeCount":15},{"address":"北京市西城区月坛南街24号","baiduLatitude":39.919262,"baiduLongitude":116.34973,"cinameName":"北京国宾菁英电影院","cinemaId":1018,"couponActivityList":[{"desc":"温州银行信用卡10元购票（周三、六10点起）","id":232,"isSelected":false,"tag":"温州银行10元购票","url":"http://feature.mtime.cn/mobile/item/2016/bank/?3 "}],"districtID":1375,"feature":{"has3D":0,"hasFeature4D":0,"hasFeature4K":0,"hasFeatureDolby":0,"hasFeatureHuge":0,"hasIMAX":0,"hasLoveseat":0,"hasPark":0,"hasServiceTicket":0,"hasVIP":0,"hasWifi":0},"isETicket":true,"isTicket":false,"latitude":39.913612,"longitude":116.343124,"minPrice":0,"movieCount":8,"ratingFinal":6.841967,"showtimeCount":22},{"address":"北京市西城区西直门南小街68号","baiduLatitude":39.941513,"baiduLongitude":116.36597,"cinameName":"北京青年宫电影城","cinemaId":1011,"couponActivityList":[],"districtID":1375,"feature":{"has3D":0,"hasFeature4D":0,"hasFeature4K":0,"hasFeatureDolby":0,"hasFeatureHuge":0,"hasIMAX":0,"hasLoveseat":0,"hasPark":0,"hasServiceTicket":0,"hasVIP":0,"hasWifi":0},"isETicket":true,"isTicket":true,"latitude":39.935703,"longitude":116.35942,"minPrice":0,"movieCount":0,"ratingFinal":6.8670325,"showtimeCount":0},{"address":"北京市大兴区亦庄经济开发区荣华中路力宝广场北京华联购物中心四层","baiduLatitude":39.81124,"baiduLongitude":116.50783,"cinameName":"唐阁影城-北京亦庄店","cinemaId":6364,"couponActivityList":[{"desc":"温州银行信用卡10元购票（周三、六10点起）","id":232,"isSelected":false,"tag":"温州银行10元购票","url":"http://feature.mtime.cn/mobile/item/2016/bank/?3 "}],"districtID":1364,"feature":{"has3D":1,"hasFeature4D":0,"hasFeature4K":0,"hasFeatureDolby":0,"hasFeatureHuge":0,"hasIMAX":0,"hasLoveseat":0,"hasPark":0,"hasServiceTicket":1,"hasVIP":0,"hasWifi":1},"isETicket":true,"isTicket":false,"latitude":39.80406,"longitude":116.501724,"minPrice":0,"movieCount":21,"ratingFinal":8.853478,"showtimeCount":146},{"address":"北京市朝阳区安立路68号飘亮广场北门一层","baiduLatitude":40.004696,"baiduLongitude":116.41556,"cinameName":"阳光影城","cinemaId":1481,"couponActivityList":[],"districtID":1362,"feature":{"has3D":0,"hasFeature4D":0,"hasFeature4K":0,"hasFeatureDolby":0,"hasFeatureHuge":0,"hasIMAX":0,"hasLoveseat":0,"hasPark":0,"hasServiceTicket":0,"hasVIP":0,"hasWifi":0},"isETicket":true,"isTicket":true,"latitude":39.997604,"longitude":116.40905,"minPrice":0,"movieCount":0,"ratingFinal":6.340025,"showtimeCount":0},{"address":"北京市海淀区北三环西路大钟寺中坤广场C座3层","baiduLatitude":39.971455,"baiduLongitude":116.34816,"cinameName":"北京新华大钟寺店","cinemaId":3129,"couponActivityList":[],"districtID":1368,"feature":{"has3D":0,"hasFeature4D":0,"hasFeature4K":0,"hasFeatureDolby":0,"hasFeatureHuge":0,"hasIMAX":0,"hasLoveseat":0,"hasPark":0,"hasServiceTicket":0,"hasVIP":0,"hasWifi":0},"isETicket":true,"isTicket":true,"latitude":39.965904,"longitude":116.34014,"minPrice":0,"movieCount":0,"ratingFinal":6.8849545,"showtimeCount":0},{"address":"北京市房山区燕山岗南路","baiduLatitude":39.73413,"baiduLongitude":115.96737,"cinameName":"燕山影剧院","cinemaId":2629,"couponActivityList":[{"desc":"温州银行信用卡10元购票（周三、六10点起）","id":232,"isSelected":false,"tag":"温州银行10元购票","url":"http://feature.mtime.cn/mobile/item/2016/bank/?3 "}],"districtID":1366,"feature":{"has3D":1,"hasFeature4D":0,"hasFeature4K":0,"hasFeatureDolby":0,"hasFeatureHuge":0,"hasIMAX":0,"hasLoveseat":0,"hasPark":1,"hasServiceTicket":0,"hasVIP":0,"hasWifi":0},"isETicket":true,"isTicket":false,"latitude":39.728313,"longitude":115.9608,"minPrice":0,"movieCount":11,"ratingFinal":6.646291,"showtimeCount":28},{"address":"北京市丰台区角门19号院2号华冠天地商场4楼","baiduLatitude":39.842884,"baiduLongitude":116.38496,"cinameName":"幸福蓝海公益桥店","cinemaId":4717,"couponActivityList":[],"districtID":1367,"feature":{"has3D":0,"hasFeature4D":0,"hasFeature4K":0,"hasFeatureDolby":0,"hasFeatureHuge":0,"hasIMAX":0,"hasLoveseat":0,"hasPark":0,"hasServiceTicket":0,"hasVIP":0,"hasWifi":0},"isETicket":true,"isTicket":true,"latitude":39.836487,"longitude":116.37775,"minPrice":0,"movieCount":0,"ratingFinal":8.024332,"showtimeCount":0},{"address":"崇文区崇外大街40号搜秀城9层","baiduLatitude":39.9026,"baiduLongitude":116.425735,"cinameName":"北京搜秀影城","cinemaId":1001,"couponActivityList":[{"desc":"温州银行信用卡10元购票（周三、六10点起）","id":232,"isSelected":false,"tag":"温州银行10元购票","url":"http://feature.mtime.cn/mobile/item/2016/bank/?3 "}],"districtID":1363,"feature":{"has3D":1,"hasFeature4D":0,"hasFeature4K":0,"hasFeatureDolby":0,"hasFeatureHuge":0,"hasIMAX":0,"hasLoveseat":1,"hasPark":1,"hasServiceTicket":1,"hasVIP":1,"hasWifi":1},"isETicket":true,"isTicket":true,"latitude":39.896404,"longitude":116.41916,"minPrice":5000,"movieCount":3,"ratingFinal":7.4519114,"showtimeCount":23},{"address":"北京市朝阳区南影路9号","baiduLatitude":40.00361,"baiduLongitude":116.527374,"cinameName":"中国电影博物馆","cinemaId":1396,"couponActivityList":[],"districtID":1362,"feature":{"has3D":0,"hasFeature4D":0,"hasFeature4K":0,"hasFeatureDolby":0,"hasFeatureHuge":0,"hasIMAX":0,"hasLoveseat":0,"hasPark":0,"hasServiceTicket":0,"hasVIP":0,"hasWifi":0},"isETicket":true,"isTicket":true,"latitude":39.996193,"longitude":116.52091,"minPrice":0,"movieCount":0,"ratingFinal":8.772724,"showtimeCount":0},{"address":"北京市房山区良乡北关西路14号华冠购物中心五层","baiduLatitude":39.74147,"baiduLongitude":116.145805,"cinameName":"新华国际良乡店","cinemaId":2157,"couponActivityList":[],"districtID":1366,"feature":{"has3D":0,"hasFeature4D":0,"hasFeature4K":0,"hasFeatureDolby":0,"hasFeatureHuge":0,"hasIMAX":0,"hasLoveseat":0,"hasPark":0,"hasServiceTicket":0,"hasVIP":0,"hasWifi":0},"isETicket":true,"isTicket":true,"latitude":39.735786,"longitude":116.13965,"minPrice":0,"movieCount":0,"ratingFinal":6.145055,"showtimeCount":0},{"address":"顺义区新顺北街3号","baiduLatitude":40.1402,"baiduLongitude":116.65735,"cinameName":"北京市顺义影剧院","cinemaId":1398,"couponActivityList":[{"desc":"温州银行信用卡10元购票（周三、六10点起）","id":232,"isSelected":false,"tag":"温州银行10元购票","url":"http://feature.mtime.cn/mobile/item/2016/bank/?3 "}],"districtID":1373,"feature":{"has3D":1,"hasFeature4D":0,"hasFeature4K":0,"hasFeatureDolby":0,"hasFeatureHuge":0,"hasIMAX":0,"hasLoveseat":0,"hasPark":1,"hasServiceTicket":0,"hasVIP":0,"hasWifi":0},"isETicket":true,"isTicket":false,"latitude":40.133904,"longitude":116.65094,"minPrice":0,"movieCount":2,"ratingFinal":6.5283875,"showtimeCount":2},{"address":"大兴区黄村东大街火神庙国际商业中心E座5层","baiduLatitude":39.735367,"baiduLongitude":116.34812,"cinameName":"新华影城大兴店","cinemaId":3062,"couponActivityList":[],"districtID":1364,"feature":{"has3D":0,"hasFeature4D":0,"hasFeature4K":0,"hasFeatureDolby":0,"hasFeatureHuge":0,"hasIMAX":0,"hasLoveseat":0,"hasPark":0,"hasServiceTicket":0,"hasVIP":0,"hasWifi":0},